[{"name":"信旺华府骏苑","count":50,"avgSize":101.04,"avgPrice":13757,"location":{"lng":117.233337,"lat":31.832149}},{"name":"保利拉菲公馆","count":27,"avgSize":101.03703703703704,"avgPrice":20540,"location":{"lng":117.27542,"lat":31.71707}},{"name":"和昌都汇华府","count":33,"avgSize":85.42424242424242,"avgPrice":19114,"location":{"lng":117.31011,"lat":31.82356}},{"name":"蓝鼎观湖苑","count":22,"avgSize":94.13636363636364,"avgPrice":19744,"location":{"lng":117.29932,"lat":31.73928}},{"name":"万振逍遥苑四期","count":36,"avgSize":81.41666666666667,"avgPrice":16989,"location":{"lng":117.3069,"lat":31.83453}},{"name":"东海星城","count":19,"avgSize":75.94736842105263,"avgPrice":14800,"location":{"lng":117.22386,"lat":31.78417}},{"name":"发能太阳海岸","count":27,"avgSize":76.03703703703704,"avgPrice":21037,"location":{"lng":117.20513,"lat":31.80578}},{"name":"金地国际城","count":26,"avgSize":85.07692307692308,"avgPrice":15381,"location":{"lng":117.30308,"lat":31.83755}},{"name":"博澳丽苑","count":21,"avgSize":81.14285714285714,"avgPrice":14989,"location":{"lng":117.21365,"lat":31.8354}},{"name":"江南新里程","count":31,"avgSize":50,"avgPrice":15934,"location":{"lng":117.28067,"lat":31.83453}},{"name":"蓝鼎星河府","count":21,"avgSize":117.57142857142857,"avgPrice":18233,"location":{"lng":117.31119,"lat":31.84609}},{"name":"融科九重锦","count":32,"avgSize":97,"avgPrice":22563,"location":{"lng":117.21117,"lat":31.80115}},{"name":"蓝鼎滨湖假日翰林苑","count":16,"avgSize":87.0625,"avgPrice":21535,"location":{"lng":117.29819,"lat":31.25586}},{"name":"恒大华府","count":19,"avgSize":138.89473684210526,"avgPrice":20314,"location":{"lng":117.2009,"lat":31.80869}},{"name":"东冠繁华逸城","count":15,"avgSize":88.6,"avgPrice":15470,"location":{"lng":117.17268,"lat":31.78264}},{"name":"世纪城徽贵苑","count":7,"avgSize":118.57142857142857,"avgPrice":18460,"location":{"lng":117.29415,"lat":31.74547}},{"name":"中铁国际城广园","count":5,"avgSize":140.2,"avgPrice":15718,"location":{"lng":117.23206,"lat":31.90384}},{"name":"地矿家园","count":22,"avgSize":110.86363636363636,"avgPrice":17671,"location":{"lng":117.30714,"lat":31.82448}},{"name":"凯旋门","count":25,"avgSize":138.16,"avgPrice":23467,"location":{"lng":117.23052,"lat":31.80262}},{"name":"imore公寓","count":14,"avgSize":66.07142857142857,"avgPrice":18503,"location":{"lng":117.21217,"lat":31.80945}},{"name":"新鸿意瀚海星座","count":11,"avgSize":57.81818181818182,"avgPrice":15188,"location":{"lng":117.26878,"lat":31.83235}},{"name":"禹洲华侨城三期（荷园）","count":20,"avgSize":83,"avgPrice":16259,"location":{"lng":117.20391,"lat":31.79857}},{"name":"保利.香槟国际","count":22,"avgSize":103.45454545454545,"avgPrice":21917,"location":{"lng":117.20146,"lat":31.81196}},{"name":"旭辉御府","count":18,"avgSize":96.16666666666667,"avgPrice":19565,"location":{"lng":117.20146,"lat":31.81196}},{"name":"高速滨湖时代广场","count":18,"avgSize":106.55555555555556,"avgPrice":20974,"location":{"lng":117.28296,"lat":31.71999}},{"name":"铂金汉宫","count":17,"avgSize":83.3529411764706,"avgPrice":17016,"location":{"lng":117.30036,"lat":31.82499}},{"name":"世纪城徽昌苑","count":9,"avgSize":119.22222222222223,"avgPrice":18936,"location":{"lng":117.29953,"lat":31.74562}},{"name":"乐富强御龙湾","count":22,"avgSize":100.68181818181819,"avgPrice":23129,"location":{"lng":117.21076,"lat":31.81289}},{"name":"水墨蘭庭","count":22,"avgSize":100.36363636363636,"avgPrice":22984,"location":{"lng":117.2185,"lat":31.81982}},{"name":"世纪城临滨苑","count":3,"avgSize":119,"avgPrice":19304,"location":{"lng":117.29012,"lat":31.74561}},{"name":"兴园小区北区","count":2,"avgSize":104,"avgPrice":13513,"location":{"lng":117.20475,"lat":31.81723}},{"name":"绿苑公寓","count":5,"avgSize":51.4,"avgPrice":17825,"location":{"lng":117.2142,"lat":31.78724}},{"name":"西园新村","count":3,"avgSize":59.666666666666664,"avgPrice":19372,"location":{"lng":117.25454,"lat":31.85034}},{"name":"通和易居同辉南苑","count":3,"avgSize":74.66666666666667,"avgPrice":18688,"location":{"lng":117.24915,"lat":31.84395}},{"name":"橡树湾二期","count":6,"avgSize":93.83333333333333,"avgPrice":20109,"location":{"lng":117.26093,"lat":31.88809}},{"name":"亳州城","count":3,"avgSize":47,"avgPrice":13707,"location":{"lng":117.26612,"lat":31.87654}},{"name":"国贸公寓","count":5,"avgSize":90,"avgPrice":17676,"location":{"lng":117.30183,"lat":31.84673}},{"name":"金都华庭三期","count":4,"avgSize":82,"avgPrice":16125,"location":{"lng":117.27909,"lat":31.90151}},{"name":"丹若苑","count":4,"avgSize":140,"avgPrice":21522,"location":{"lng":117.23418,"lat":31.82284}},{"name":"丹青花园","count":4,"avgSize":91.25,"avgPrice":18450,"location":{"lng":117.24535,"lat":31.82122}},{"name":"绿地海顿公馆B","count":5,"avgSize":93.2,"avgPrice":20226,"location":{"lng":117.31013,"lat":31.83139}},{"name":"科苑新村","count":2,"avgSize":113.5,"avgPrice":13503,"location":{"lng":117.27277,"lat":31.83304}},{"name":"环宇大厦","count":3,"avgSize":42,"avgPrice":15130,"location":{"lng":117.30292,"lat":31.83005}},{"name":"名仕豪庭","count":3,"avgSize":103.66666666666667,"avgPrice":16819,"location":{"lng":117.20451,"lat":31.80015}},{"name":"凯旋公寓","count":2,"avgSize":64,"avgPrice":16692,"location":{"lng":117.21068,"lat":31.78283}},{"name":"天鹅湖万达广场","count":3,"avgSize":57,"avgPrice":12305,"location":{"lng":117.22127,"lat":31.81994}},{"name":"万振逍遥苑一期","count":4,"avgSize":147.75,"avgPrice":17472,"location":{"lng":117.22127,"lat":31.81994}},{"name":"舒馨花园(南区)","count":1,"avgSize":77,"avgPrice":13637,"location":{"lng":117.25552,"lat":31.90399}},{"name":"佳境枫情苑","count":3,"avgSize":80,"avgPrice":18064,"location":{"lng":117.20653,"lat":31.79131}},{"name":"富世广场","count":3,"avgSize":104,"avgPrice":15213,"location":{"lng":117.28962,"lat":31.85838}},{"name":"陶然居","count":3,"avgSize":101,"avgPrice":20281,"location":{"lng":117.24581,"lat":31.81435}},{"name":"凤巢园","count":5,"avgSize":81.6,"avgPrice":14801,"location":{"lng":117.30507,"lat":31.84561}},{"name":"杏花小区","count":3,"avgSize":76.33333333333333,"avgPrice":15840,"location":{"lng":117.27458,"lat":31.87239}},{"name":"徽商优山美地","count":1,"avgSize":58,"avgPrice":15822,"location":{"lng":117.19841,"lat":31.85311}},{"name":"燕园","count":4,"avgSize":127.5,"avgPrice":16053,"location":{"lng":117.23339,"lat":31.8629}},{"name":"汇林阁东区","count":3,"avgSize":110.33333333333333,"avgPrice":18340,"location":{"lng":117.21941,"lat":31.82544}},{"name":"龙凤嘉园一期","count":2,"avgSize":159.5,"avgPrice":13030,"location":{"lng":117.23058,"lat":31.86441}},{"name":"港澳花园","count":2,"avgSize":113,"avgPrice":15754,"location":{"lng":117.20572,"lat":31.78968}},{"name":"珠光花园","count":2,"avgSize":97.5,"avgPrice":14974,"location":{"lng":117.30337,"lat":31.82758}},{"name":"皖西新村","count":4,"avgSize":51.5,"avgPrice":17150,"location":{"lng":117.24476,"lat":31.80506}},{"name":"中铁国际城桂园","count":1,"avgSize":86,"avgPrice":17546,"location":{"lng":117.23206,"lat":31.90384}},{"name":"恒大城","count":2,"avgSize":122.5,"avgPrice":14603,"location":{"lng":117.38941,"lat":31.87677}},{"name":"禹洲华侨城三期(枫园）","count":3,"avgSize":107,"avgPrice":15210,"location":{"lng":117.20391,"lat":31.79857}},{"name":"森林橙堡","count":4,"avgSize":47.25,"avgPrice":7647,"location":{"lng":117.21462,"lat":31.86909}},{"name":"金荷苑","count":3,"avgSize":76.33333333333333,"avgPrice":16447,"location":{"lng":117.2731,"lat":31.89323}},{"name":"丰乐世纪公寓","count":2,"avgSize":103,"avgPrice":16266,"location":{"lng":117.22994,"lat":31.85218}},{"name":"高速翡翠湖畔","count":3,"avgSize":105.66666666666667,"avgPrice":16222,"location":{"lng":117.19336,"lat":31.78426}},{"name":"荣凤苑小区","count":3,"avgSize":99.33333333333333,"avgPrice":10709,"location":{"lng":117.27044,"lat":31.93582}},{"name":"金鸟花园","count":2,"avgSize":144.5,"avgPrice":11135,"location":{"lng":117.28692,"lat":31.88594}},{"name":"盛世名城","count":1,"avgSize":186,"avgPrice":16130,"location":{"lng":117.22815,"lat":31.83799}},{"name":"置地.栢景雅筑","count":6,"avgSize":102.5,"avgPrice":20139,"location":{"lng":117.2653,"lat":31.88282}},{"name":"中海原山","count":2,"avgSize":91,"avgPrice":18395,"location":{"lng":117.15651,"lat":31.85397}},{"name":"北环阳光","count":1,"avgSize":108,"avgPrice":13889,"location":{"lng":117.29077,"lat":31.905}},{"name":"祥源上城国际榆景苑","count":4,"avgSize":61,"avgPrice":17034,"location":{"lng":117.28218,"lat":31.88479}},{"name":"翰林府邸","count":5,"avgSize":100,"avgPrice":19044,"location":{"lng":117.20122,"lat":31.78023}},{"name":"宝业城市绿苑西区","count":5,"avgSize":125,"avgPrice":19670,"location":{"lng":117.3214,"lat":31.85245}},{"name":"名邦锦绣年华","count":1,"avgSize":144,"avgPrice":11806,"location":{"lng":117.21921,"lat":31.75393}},{"name":"未来家园","count":1,"avgSize":29,"avgPrice":15417,"location":{"lng":117.30565,"lat":31.88701}},{"name":"杏林花园","count":4,"avgSize":59.75,"avgPrice":13241,"location":{"lng":117.2873,"lat":31.89435}},{"name":"龙居山庄锦龙居","count":5,"avgSize":93.4,"avgPrice":15960,"location":{"lng":117.23632,"lat":31.86531}},{"name":"鼎元府邸","count":5,"avgSize":86,"avgPrice":19782,"location":{"lng":117.31462,"lat":31.85433}},{"name":"世纪阳光花园兰阳苑","count":5,"avgSize":81,"avgPrice":20173,"location":{"lng":117.301562,"lat":31.836835}},{"name":"万振逍遥苑二期","count":3,"avgSize":178.33333333333334,"avgPrice":16532,"location":{"lng":117.30278,"lat":31.83506}},{"name":"阳光上南怡园","count":4,"avgSize":95.5,"avgPrice":14336,"location":{"lng":117.31719,"lat":31.83893}},{"name":"万科森林公园•旭庭","count":1,"avgSize":88,"avgPrice":19752,"location":null},{"name":"黄山花园","count":4,"avgSize":122,"avgPrice":16968,"location":{"lng":117.2452,"lat":31.83005}},{"name":"体育南村","count":3,"avgSize":72.33333333333333,"avgPrice":18619,"location":{"lng":117.22801,"lat":31.7962}},{"name":"金江苑小区","count":2,"avgSize":159.5,"avgPrice":13725,"location":{"lng":117.26678,"lat":31.82864}},{"name":"丹霞柠檬郡","count":1,"avgSize":42,"avgPrice":17103,"location":{"lng":117.22801,"lat":31.7962}},{"name":"天一家园","count":1,"avgSize":168,"avgPrice":13989,"location":{"lng":117.24151,"lat":31.87242}},{"name":"颐和花园慧苑","count":5,"avgSize":100.6,"avgPrice":18281,"location":{"lng":117.23766,"lat":31.86296}},{"name":"翠湖苑","count":2,"avgSize":92.5,"avgPrice":16114,"location":{"lng":117.20199,"lat":31.77635}},{"name":"亚华新城邦.茗苑","count":2,"avgSize":89.5,"avgPrice":21641,"location":{"lng":117.24742,"lat":31.81778}},{"name":"雍景台","count":3,"avgSize":122,"avgPrice":14845,"location":{"lng":117.2136,"lat":31.78006}},{"name":"芙蓉名园","count":0,"avgSize":null,"avgPrice":null,"location":{"lng":117.22883,"lat":31.78489}},{"name":"金星家园","count":4,"avgSize":166.5,"avgPrice":18357,"location":{"lng":117.19871,"lat":31.78104}},{"name":"新华徽府","count":3,"avgSize":182.33333333333334,"avgPrice":15694,"location":{"lng":117.19971,"lat":31.78378}},{"name":"岸上玫瑰","count":4,"avgSize":181,"avgPrice":21106,"location":{"lng":117.2174,"lat":31.80538}},{"name":"湖畔春天","count":5,"avgSize":114.6,"avgPrice":21533,"location":{"lng":117.21399,"lat":31.8072}},{"name":"世纪阳光花园红阳苑","count":3,"avgSize":88.66666666666667,"avgPrice":19716,"location":{"lng":117.301562,"lat":31.836835}},{"name":"绿园小区","count":5,"avgSize":161,"avgPrice":14462,"location":{"lng":117.28391,"lat":31.83672}},{"name":"美湖小区","count":2,"avgSize":56.5,"avgPrice":16664,"location":{"lng":117.28939,"lat":31.83311}},{"name":"太湖苑","count":3,"avgSize":132.33333333333334,"avgPrice":15702,"location":{"lng":117.29287,"lat":31.83292}},{"name":"望湖南苑","count":2,"avgSize":97.5,"avgPrice":16243,"location":{"lng":117.28977,"lat":31.81035}},{"name":"滨湖春天","count":4,"avgSize":127.25,"avgPrice":19338,"location":{"lng":117.30355,"lat":31.807}},{"name":"望湖城桂香居福桂苑","count":2,"avgSize":182,"avgPrice":19550,"location":{"lng":117.29822,"lat":31.80942}},{"name":"丽水芙蓉","count":4,"avgSize":107.25,"avgPrice":14863,"location":{"lng":117.32031,"lat":31.84235}},{"name":"星海苑","count":3,"avgSize":120,"avgPrice":15441,"location":{"lng":117.31679,"lat":31.86054}},{"name":"玉翠园","count":4,"avgSize":71.5,"avgPrice":17053,"location":{"lng":117.27122,"lat":31.89402}},{"name":"月半弯青年公寓","count":0,"avgSize":null,"avgPrice":null,"location":{"lng":117.20782,"lat":31.79502}},{"name":"绿地海顿公馆A","count":3,"avgSize":113,"avgPrice":19931,"location":{"lng":117.31013,"lat":31.83139}},{"name":"华邦繁华里","count":2,"avgSize":129.5,"avgPrice":17850,"location":{"lng":117.24376,"lat":31.85179}},{"name":"南都雲庭","count":1,"avgSize":33,"avgPrice":11934,"location":{"lng":117.31253,"lat":31.86628}},{"name":"望城公馆","count":2,"avgSize":46,"avgPrice":16355,"location":{"lng":117.28533,"lat":31.89196}},{"name":"海岸星辰","count":1,"avgSize":92,"avgPrice":16692,"location":{"lng":117.20086,"lat":31.8171}},{"name":"湖畔徽映阁","count":2,"avgSize":166,"avgPrice":24192,"location":{"lng":117.23356,"lat":31.80703}},{"name":"可苑新村","count":1,"avgSize":41,"avgPrice":16098,"location":{"lng":117.27342,"lat":31.87673}},{"name":"金都华庭","count":2,"avgSize":108.5,"avgPrice":14896,"location":{"lng":117.27771,"lat":31.89856}},{"name":"紫御府","count":2,"avgSize":87,"avgPrice":19967,"location":{"lng":117.21339,"lat":31.78138}},{"name":"紫桐新村(C区.D区)","count":0,"avgSize":null,"avgPrice":null,"location":{"lng":117.2428,"lat":31.89432}},{"name":"中奥花园","count":3,"avgSize":67.66666666666667,"avgPrice":12489,"location":{"lng":117.2703,"lat":31.95706}},{"name":"隆庭佳苑","count":2,"avgSize":96.5,"avgPrice":16930,"location":{"lng":117.31989,"lat":31.84992}},{"name":"湖东景园南区","count":3,"avgSize":135.66666666666666,"avgPrice":20571,"location":{"lng":117.24497,"lat":31.81597}},{"name":"天一大厦","count":2,"avgSize":46,"avgPrice":15279,"location":{"lng":117.23931,"lat":31.87282}},{"name":"曙光新村","count":1,"avgSize":158,"avgPrice":13925,"location":{"lng":117.28005,"lat":31.84473}},{"name":"文一名门湖畔","count":0,"avgSize":null,"avgPrice":null,"location":{"lng":117.28005,"lat":31.84473}},{"name":"北都花园","count":1,"avgSize":102,"avgPrice":13611,"location":{"lng":117.23073,"lat":31.90057}},{"name":"叉车厂宿舍","count":0,"avgSize":null,"avgPrice":null,"location":{"lng":117.25987,"lat":31.83037}},{"name":"公交锦绣园","count":0,"avgSize":null,"avgPrice":null,"location":{"lng":117.22615,"lat":31.75802}},{"name":"翠竹园西村","count":3,"avgSize":77,"avgPrice":16190,"location":{"lng":117.25477,"lat":31.86999}},{"name":"康居苑小区","count":3,"avgSize":74,"avgPrice":15658,"location":{"lng":117.25114,"lat":31.87307}},{"name":"琥珀北村","count":4,"avgSize":76.5,"avgPrice":18182,"location":{"lng":117.26306,"lat":31.86668}},{"name":"园景天下","count":1,"avgSize":134,"avgPrice":18931,"location":{"lng":117.19783,"lat":31.8487}},{"name":"百商尚成","count":2,"avgSize":116,"avgPrice":16603,"location":{"lng":117.20424,"lat":31.81475}},{"name":"联邦花园","count":4,"avgSize":132.75,"avgPrice":16738,"location":{"lng":117.30233,"lat":31.84049}},{"name":"多伦多花园","count":1,"avgSize":89,"avgPrice":15037,"location":{"lng":117.211967,"lat":31.76441}},{"name":"北美印象雅苑","count":3,"avgSize":94,"avgPrice":16493,"location":{"lng":117.27036,"lat":31.89012}},{"name":"昆仑花园","count":1,"avgSize":78,"avgPrice":16540,"location":{"lng":117.2647,"lat":31.88916}},{"name":"钻界公寓","count":2,"avgSize":55.5,"avgPrice":8249,"location":{"lng":117.20778,"lat":31.79187}},{"name":"万科森林公园•朗庭","count":2,"avgSize":93,"avgPrice":19904,"location":null},{"name":"上铁.银欣花园","count":0,"avgSize":null,"avgPrice":null,"location":{"lng":117.20206,"lat":31.82156}},{"name":"滨湖惠园","count":2,"avgSize":59.5,"avgPrice":17356,"location":{"lng":117.27759,"lat":31.73018}},{"name":"省直家园","count":1,"avgSize":114,"avgPrice":13920,"location":{"lng":117.29014,"lat":31.83133}},{"name":"望湖嘉苑","count":4,"avgSize":137.25,"avgPrice":19291,"location":{"lng":117.30497,"lat":31.80471}},{"name":"阳光汇景","count":0,"avgSize":null,"avgPrice":null,"location":{"lng":117.30497,"lat":31.80471}},{"name":"丰大国际","count":0,"avgSize":null,"avgPrice":null,"location":{"lng":117.32607,"lat":31.89704}},{"name":"华亿大厦","count":2,"avgSize":79.5,"avgPrice":17130,"location":{"lng":117.23081,"lat":31.83609}},{"name":"康居时代家园","count":1,"avgSize":150,"avgPrice":12098,"location":{"lng":117.25231,"lat":31.87292}},{"name":"世纪阳光花园绿阳苑","count":3,"avgSize":132,"avgPrice":18408,"location":{"lng":117.301562,"lat":31.836835}},{"name":"天鹅湖九号","count":2,"avgSize":108,"avgPrice":20712,"location":{"lng":117.23734,"lat":31.81518}},{"name":"阿奎利亚上学苑","count":4,"avgSize":89,"avgPrice":12478,"location":{"lng":117.26139,"lat":31.95319}},{"name":"锦绣园","count":3,"avgSize":213.66666666666666,"avgPrice":16680,"location":{"lng":117.30163,"lat":31.85389}},{"name":"路缘小区","count":2,"avgSize":98.5,"avgPrice":15640,"location":{"lng":117.21874,"lat":31.87314}},{"name":"宝业城市绿苑北区","count":2,"avgSize":74.5,"avgPrice":17977,"location":{"lng":117.21874,"lat":31.87314}},{"name":"元一滨水城","count":2,"avgSize":98,"avgPrice":18322,"location":{"lng":117.3214,"lat":31.85245}},{"name":"新艺苑","count":2,"avgSize":65,"avgPrice":19402,"location":{"lng":117.29494,"lat":31.84907}},{"name":"香水郡","count":2,"avgSize":144.5,"avgPrice":16539,"location":{"lng":117.21205,"lat":31.77971}},{"name":"璟泰华秀苑","count":2,"avgSize":115.5,"avgPrice":13317,"location":{"lng":117.30416,"lat":31.89406}},{"name":"百商悦澜山","count":0,"avgSize":null,"avgPrice":null,"location":{"lng":117.17779,"lat":31.81872}},{"name":"温莎杰座","count":1,"avgSize":121,"avgPrice":12324,"location":{"lng":117.31042,"lat":31.87456}},{"name":"商务厅职工宿舍","count":4,"avgSize":74.5,"avgPrice":17108,"location":{"lng":117.29226,"lat":31.85342}},{"name":"百合花园","count":2,"avgSize":95,"avgPrice":17193,"location":{"lng":117.21836,"lat":31.83029}},{"name":"蜀湖湾小区","count":2,"avgSize":120.5,"avgPrice":17393,"location":{"lng":117.19588,"lat":31.85183}},{"name":"世纪阳光花园橙阳苑","count":1,"avgSize":118,"avgPrice":17967,"location":{"lng":117.301562,"lat":31.836835}},{"name":"烟草公司宿舍","count":2,"avgSize":67,"avgPrice":16386,"location":{"lng":117.28263,"lat":31.83856}},{"name":"蜀峰湾","count":2,"avgSize":97,"avgPrice":18402,"location":{"lng":117.19014,"lat":31.83278}},{"name":"紫荆花园","count":2,"avgSize":173.5,"avgPrice":13276,"location":{"lng":117.28346,"lat":31.84183}},{"name":"高河花园","count":2,"avgSize":110,"avgPrice":17080,"location":{"lng":117.24645,"lat":31.86189}},{"name":"新华国际广场","count":0,"avgSize":null,"avgPrice":null,"location":{"lng":117.23207,"lat":31.83604}},{"name":"颐和阳光大厦","count":1,"avgSize":56,"avgPrice":15195,"location":{"lng":117.24214,"lat":31.85739}},{"name":"新天地广场公寓","count":0,"avgSize":null,"avgPrice":null,"location":{"lng":117.27927,"lat":31.88019}},{"name":"轻工业厅宿舍","count":3,"avgSize":59.333333333333336,"avgPrice":20205,"location":{"lng":117.28159,"lat":31.83824}},{"name":"动力新二村","count":3,"avgSize":76,"avgPrice":17272,"location":{"lng":117.22701,"lat":31.84693}},{"name":"华孚汇金","count":2,"avgSize":127,"avgPrice":15265,"location":{"lng":117.27429,"lat":31.89583}},{"name":"信达好第坊","count":3,"avgSize":103,"avgPrice":19693,"location":{"lng":117.29655,"lat":31.8127}},{"name":"书香门第（东区）","count":0,"avgSize":null,"avgPrice":null,"location":{"lng":117.29703,"lat":31.25516}},{"name":"临湖苑D区","count":3,"avgSize":113,"avgPrice":20169,"location":{"lng":117.3797,"lat":31.14878}},{"name":"中海滨湖公馆","count":2,"avgSize":104.5,"avgPrice":22710,"location":{"lng":117.29596,"lat":31.71376}},{"name":"岳枫园","count":1,"avgSize":120,"avgPrice":15000,"location":{"lng":117.22433,"lat":31.84968}},{"name":"云滨花园","count":1,"avgSize":74,"avgPrice":19159,"location":{"lng":117.25455,"lat":31.8767}},{"name":"绿缘居","count":0,"avgSize":null,"avgPrice":null,"location":{"lng":117.21874,"lat":31.87314}},{"name":"拓基城市广场","count":0,"avgSize":null,"avgPrice":null,"location":{"lng":117.20482,"lat":31.85441}},{"name":"绿地花都蓝蝶苑","count":4,"avgSize":94.25,"avgPrice":26140,"location":{"lng":117.22187,"lat":31.80516}},{"name":"银领时代花园","count":1,"avgSize":76,"avgPrice":12872,"location":{"lng":117.34274,"lat":31.88464}},{"name":"书香门第（西区）","count":1,"avgSize":83,"avgPrice":25030,"location":{"lng":117.29703,"lat":31.25516}},{"name":"大溪地天润轩","count":4,"avgSize":80.75,"avgPrice":18876,"location":{"lng":117.21966,"lat":31.84757}},{"name":"蓝岸雅居","count":2,"avgSize":136.5,"avgPrice":17560,"location":{"lng":117.31115,"lat":31.85719}},{"name":"中天左岸","count":2,"avgSize":67.5,"avgPrice":16512,"location":{"lng":117.31445,"lat":31.84849}},{"name":"蜀鑫雅苑","count":1,"avgSize":87,"avgPrice":17980,"location":{"lng":117.2284,"lat":31.83112}},{"name":"中环紫荆公馆","count":2,"avgSize":83.5,"avgPrice":20871,"location":{"lng":117.20804,"lat":31.78011}},{"name":"紫桐新村(A区.B区)","count":1,"avgSize":66,"avgPrice":14813,"location":{"lng":117.2428,"lat":31.89432}},{"name":"恒大帝景","count":2,"avgSize":43.5,"avgPrice":11658,"location":{"lng":117.88779,"lat":31.62257}},{"name":"濉溪路212号","count":2,"avgSize":85.5,"avgPrice":14681,"location":{"lng":117.276729,"lat":31.879731}},{"name":"枫林雅苑","count":1,"avgSize":61,"avgPrice":16224,"location":{"lng":117.26575,"lat":31.88765}},{"name":"海棠别院(南区)","count":3,"avgSize":87.66666666666667,"avgPrice":16062,"location":{"lng":117.26919,"lat":31.89385}},{"name":"濉溪新村","count":3,"avgSize":67.66666666666667,"avgPrice":14055,"location":{"lng":117.28623,"lat":31.87934}},{"name":"荣事达小区","count":1,"avgSize":64,"avgPrice":12434,"location":{"lng":117.25704,"lat":31.87569}},{"name":"世纪家园","count":2,"avgSize":149,"avgPrice":19320,"location":{"lng":117.2669,"lat":31.87461}},{"name":"颐和花园澄苑","count":1,"avgSize":151,"avgPrice":15852,"location":{"lng":117.24303,"lat":31.86351}},{"name":"理想年代","count":1,"avgSize":93,"avgPrice":19205,"location":{"lng":117.23601,"lat":31.85816}},{"name":"汇林阁小区小高层西","count":2,"avgSize":142,"avgPrice":17796,"location":{"lng":117.21941,"lat":31.82544}},{"name":"松林苑","count":0,"avgSize":null,"avgPrice":null,"location":{"lng":117.20095,"lat":31.78405}},{"name":"万振逍遥苑连排","count":2,"avgSize":221,"avgPrice":17318,"location":{"lng":117.30446,"lat":31.83489}},{"name":"信发小区","count":2,"avgSize":96,"avgPrice":15396,"location":{"lng":117.29444,"lat":31.83266}},{"name":"吟春园","count":1,"avgSize":114,"avgPrice":13407,"location":{"lng":117.31601,"lat":31.87689}},{"name":"军干阳光公寓","count":3,"avgSize":117.66666666666667,"avgPrice":16815,"location":{"lng":117.29129,"lat":31.81939}},{"name":"菱水苑南区","count":2,"avgSize":99.5,"avgPrice":15185,"location":{"lng":117.28637,"lat":31.8196}},{"name":"湖畔家园","count":0,"avgSize":null,"avgPrice":null,"location":{"lng":117.24076,"lat":31.89981}},{"name":"上湖名院","count":1,"avgSize":89,"avgPrice":17134,"location":{"lng":117.20519,"lat":31.79903}},{"name":"凌江苑","count":1,"avgSize":97,"avgPrice":13999,"location":{"lng":117.27795,"lat":31.81346}},{"name":"澜溪镇","count":2,"avgSize":148.5,"avgPrice":20583,"location":{"lng":117.19399,"lat":31.83486}},{"name":"怡园新村","count":0,"avgSize":null,"avgPrice":null,"location":{"lng":117.25386,"lat":31.859}},{"name":"望湖城桂香居日桂苑","count":3,"avgSize":159,"avgPrice":18669,"location":{"lng":117.29892,"lat":31.80234}},{"name":"美丽华公寓","count":2,"avgSize":140.5,"avgPrice":16152,"location":{"lng":117.2729,"lat":31.82674}},{"name":"名景园","count":0,"avgSize":null,"avgPrice":null,"location":{"lng":117.31037,"lat":31.89112}},{"name":"丰大住宅小区","count":1,"avgSize":70,"avgPrice":13554,"location":{"lng":117.31581,"lat":31.86013}},{"name":"和平苑","count":1,"avgSize":83,"avgPrice":13838,"location":{"lng":117.32201,"lat":31.85887}},{"name":"华源国际城","count":2,"avgSize":148,"avgPrice":13589,"location":{"lng":117.33362,"lat":31.85558}},{"name":"尚泽大都会","count":2,"avgSize":114.5,"avgPrice":18238,"location":{"lng":117.22887,"lat":31.77373}},{"name":"滨水华城","count":1,"avgSize":124,"avgPrice":18464,"location":{"lng":117.30308,"lat":31.85348}},{"name":"桐江小区","count":1,"avgSize":89,"avgPrice":16517,"location":{"lng":117.28017,"lat":31.82928}},{"name":"拱辰街73号","count":3,"avgSize":64.66666666666667,"avgPrice":16345,"location":{"lng":117.28929,"lat":31.87222}},{"name":"长安天玺","count":2,"avgSize":227,"avgPrice":20874,"location":{"lng":117.26861,"lat":31.88102}},{"name":"顶间花园","count":2,"avgSize":164.5,"avgPrice":13626,"location":{"lng":117.20478,"lat":31.85234}},{"name":"蜀翠苑","count":1,"avgSize":70,"avgPrice":19036,"location":{"lng":117.18873,"lat":31.85057}},{"name":"安徽三棉小区","count":3,"avgSize":103,"avgPrice":16876,"location":{"lng":117.26943,"lat":31.81521}},{"name":"保利梧桐语","count":2,"avgSize":58,"avgPrice":15626,"location":{"lng":117.16892,"lat":31.81647}},{"name":"沃野花园","count":0,"avgSize":null,"avgPrice":null,"location":{"lng":117.1727,"lat":31.85513}},{"name":"东航卫岗小区","count":3,"avgSize":55.666666666666664,"avgPrice":14826,"location":{"lng":117.28401,"lat":31.82625}},{"name":"曙光路3号省水安","count":2,"avgSize":66.5,"avgPrice":14945,"location":{"lng":117.276893,"lat":31.83867}},{"name":"中翔新东城","count":0,"avgSize":null,"avgPrice":null,"location":{"lng":117.32435,"lat":31.86698}},{"name":"丽景碧雅","count":1,"avgSize":127,"avgPrice":16080,"location":{"lng":117.22503,"lat":31.78338}},{"name":"华凤国际","count":1,"avgSize":107,"avgPrice":11963,"location":{"lng":117.22087,"lat":31.7735}},{"name":"观澜华庭","count":0,"avgSize":null,"avgPrice":null,"location":{"lng":117.26988,"lat":31.74121}},{"name":"淮合花园","count":1,"avgSize":95,"avgPrice":9989,"location":{"lng":117.30378,"lat":31.92129}},{"name":"金色梧桐二期","count":2,"avgSize":80,"avgPrice":13887,"location":{"lng":117.30506,"lat":31.86805}},{"name":"邮电新村","count":0,"avgSize":null,"avgPrice":null,"location":{"lng":117.24465,"lat":31.84938}},{"name":"宁国新村","count":2,"avgSize":78.5,"avgPrice":14115,"location":{"lng":117.2942,"lat":31.85029}},{"name":"省外贸绩溪新村","count":0,"avgSize":null,"avgPrice":null,"location":{"lng":117.26722,"lat":31.84462}},{"name":"华泰商住楼","count":0,"avgSize":null,"avgPrice":null,"location":{"lng":117.30136,"lat":31.8212}},{"name":"江汽三村","count":2,"avgSize":104,"avgPrice":20671,"location":{"lng":117.27812,"lat":31.81163}},{"name":"通和易居时代","count":1,"avgSize":168,"avgPrice":20003,"location":{"lng":117.24672,"lat":31.8424}},{"name":"天一家园清溪苑","count":2,"avgSize":123,"avgPrice":15053,"location":{"lng":117.24199,"lat":31.87371}},{"name":"纪元阳光帝景","count":0,"avgSize":null,"avgPrice":null,"location":{"lng":117.24199,"lat":31.87371}},{"name":"天香苑","count":3,"avgSize":135.33333333333334,"avgPrice":19529,"location":{"lng":117.28774,"lat":31.89024}},{"name":"北苑小区（潜山路）","count":1,"avgSize":79,"avgPrice":17423,"location":{"lng":117.23253,"lat":31.83971}},{"name":"缤纷南国(蝶舞居.绮霞居)","count":1,"avgSize":137,"avgPrice":20999,"location":{"lng":117.26798,"lat":31.88308}},{"name":"大学城博雅居","count":2,"avgSize":112.5,"avgPrice":16173,"location":{"lng":117.22901,"lat":31.82057}},{"name":"太宁花园紫阑苑","count":2,"avgSize":122.5,"avgPrice":15855,"location":{"lng":117.29255,"lat":31.83047}},{"name":"民航小区","count":2,"avgSize":61,"avgPrice":16269,"location":{"lng":117.28587,"lat":31.82679}},{"name":"海棠别院(北区)","count":3,"avgSize":114,"avgPrice":16864,"location":{"lng":117.26919,"lat":31.89385}},{"name":"碧湖云溪","count":1,"avgSize":97,"avgPrice":18557,"location":{"lng":117.31003,"lat":31.83281}},{"name":"信达格兰云天","count":0,"avgSize":null,"avgPrice":null,"location":{"lng":117.34019,"lat":31.89201}},{"name":"琥珀南村","count":1,"avgSize":73,"avgPrice":20109,"location":{"lng":117.26302,"lat":31.86567}},{"name":"绿地滨湖国际花都","count":0,"avgSize":null,"avgPrice":null,"location":{"lng":117.27826,"lat":31.76732}},{"name":"元一美邦国际","count":3,"avgSize":130,"avgPrice":17904,"location":{"lng":117.26071,"lat":31.87548}},{"name":"合九新村","count":1,"avgSize":61,"avgPrice":15824,"location":{"lng":117.21834,"lat":31.83843}},{"name":"珠光花苑","count":2,"avgSize":82.5,"avgPrice":15256,"location":{"lng":117.30337,"lat":31.82758}},{"name":"电建小区","count":0,"avgSize":null,"avgPrice":null,"location":{"lng":117.20114,"lat":31.84623}},{"name":"华安家园","count":1,"avgSize":89,"avgPrice":18420,"location":{"lng":117.27503,"lat":31.88278}},{"name":"碧雨花园","count":2,"avgSize":144.5,"avgPrice":17921,"location":{"lng":117.26491,"lat":31.85423}},{"name":"天鹅湖畔","count":3,"avgSize":114.33333333333333,"avgPrice":24620,"location":{"lng":117.21578,"lat":31.81642}},{"name":"临湖社区","count":0,"avgSize":null,"avgPrice":null,"location":{"lng":117.24697,"lat":31.71058}},{"name":"虹雨花园","count":0,"avgSize":null,"avgPrice":null,"location":{"lng":117.24224,"lat":31.85619}},{"name":"龙源丽景","count":0,"avgSize":null,"avgPrice":null,"location":{"lng":117.27408,"lat":31.89263}},{"name":"丰大苑","count":0,"avgSize":null,"avgPrice":null,"location":{"lng":117.28954,"lat":31.90002}},{"name":"颐和花园（庐阳佳苑）","count":2,"avgSize":94,"avgPrice":19032,"location":{"lng":117.24052,"lat":31.85828}},{"name":"恒泰城品阿奎利亚","count":1,"avgSize":94,"avgPrice":12660,"location":{"lng":117.26711,"lat":31.95833}},{"name":"巴黎春天","count":0,"avgSize":null,"avgPrice":null,"location":{"lng":117.33459,"lat":31.88664}},{"name":"圣大国际","count":2,"avgSize":121,"avgPrice":14984,"location":{"lng":117.33459,"lat":31.88664}},{"name":"栢景湾","count":1,"avgSize":201,"avgPrice":15890,"location":{"lng":117.27022,"lat":31.87795}},{"name":"恒泰风格城市","count":0,"avgSize":null,"avgPrice":null,"location":{"lng":117.25807,"lat":31.96439}},{"name":"兴华苑","count":0,"avgSize":null,"avgPrice":null,"location":{"lng":117.32404,"lat":31.90256}},{"name":"豪世优庭","count":0,"avgSize":null,"avgPrice":null,"location":{"lng":117.31981,"lat":31.86958}},{"name":"力天大厦","count":0,"avgSize":null,"avgPrice":null,"location":{"lng":117.31056,"lat":31.8598}},{"name":"大溪地天悦轩","count":3,"avgSize":113.33333333333333,"avgPrice":19869,"location":{"lng":117.2206,"lat":31.84318}},{"name":"清源新村","count":2,"avgSize":87.5,"avgPrice":16528,"location":{"lng":117.2296,"lat":31.84185}},{"name":"御琴湾","count":1,"avgSize":98,"avgPrice":18278,"location":{"lng":117.22878,"lat":31.85769}},{"name":"景城花园","count":0,"avgSize":null,"avgPrice":null,"location":{"lng":117.29114,"lat":31.83386}},{"name":"和平盛世","count":2,"avgSize":87.5,"avgPrice":19392,"location":{"lng":117.31388,"lat":31.85677}},{"name":"万达揽湖苑","count":0,"avgSize":null,"avgPrice":null,"location":{"lng":117.2998,"lat":31.70121}},{"name":"东煌公寓","count":1,"avgSize":140,"avgPrice":15715,"location":{"lng":117.28495,"lat":31.8927}},{"name":"省司法厅宿舍","count":2,"avgSize":80.5,"avgPrice":20451,"location":{"lng":117.28127,"lat":31.86665}},{"name":"和一花园","count":4,"avgSize":116,"avgPrice":15220,"location":{"lng":117.21274,"lat":31.82925}},{"name":"创智广场","count":9,"avgSize":74,"avgPrice":15342,"location":{"lng":117.29875,"lat":31.82778}},{"name":"金色池塘","count":17,"avgSize":110.41176470588235,"avgPrice":17238,"location":{"lng":117.21399,"lat":31.86729}},{"name":"世纪城春融苑","count":3,"avgSize":84.33333333333333,"avgPrice":19033,"location":{"lng":117.29434,"lat":31.74942}},{"name":"元一柏庄","count":19,"avgSize":127.52631578947368,"avgPrice":18112,"location":{"lng":117.31711,"lat":31.84313}},{"name":"华地紫园","count":19,"avgSize":165.47368421052633,"avgPrice":18177,"location":{"lng":117.20022,"lat":31.81855}},{"name":"宋都西湖花苑","count":20,"avgSize":118.65,"avgPrice":22411,"location":{"lng":117.22209,"lat":31.79665}},{"name":"兰亭公寓","count":5,"avgSize":68.8,"avgPrice":18203,"location":{"lng":117.27819,"lat":31.84682}},{"name":"滨湖万科城","count":5,"avgSize":93.6,"avgPrice":21548,"location":{"lng":117.27273,"lat":31.71464}},{"name":"滨湖家园","count":6,"avgSize":87.16666666666667,"avgPrice":18714,"location":{"lng":117.27845,"lat":31.73309}},{"name":"融侨天骏","count":14,"avgSize":112.14285714285714,"avgPrice":21647,"location":{"lng":117.20672,"lat":31.80455}},{"name":"玫瑰绅城","count":13,"avgSize":73.07692307692308,"avgPrice":15653,"location":{"lng":117.31758,"lat":31.83323}},{"name":"森林海","count":11,"avgSize":95.36363636363636,"avgPrice":21779,"location":{"lng":117.21403,"lat":31.80044}},{"name":"世纪城徽杰苑","count":8,"avgSize":101.375,"avgPrice":17748,"location":{"lng":117.29964,"lat":31.74251}},{"name":"中铁滨湖名邸","count":9,"avgSize":109.88888888888889,"avgPrice":18953,"location":{"lng":117.28002,"lat":31.72017}},{"name":"松芝万象城","count":10,"avgSize":63.2,"avgPrice":16901,"location":{"lng":117.237048,"lat":31.850924}},{"name":"花园锦绣大地城","count":9,"avgSize":99.11111111111111,"avgPrice":14638,"location":{"lng":117.20707,"lat":31.76301}},{"name":"九溪江南","count":9,"avgSize":108.88888888888889,"avgPrice":16839,"location":{"lng":117.19974,"lat":31.79088}},{"name":"浅水湾","count":10,"avgSize":131.4,"avgPrice":17149,"location":{"lng":117.23194,"lat":31.79333}},{"name":"御景湾","count":17,"avgSize":73.05882352941177,"avgPrice":15056,"location":{"lng":117.30782,"lat":31.85896}},{"name":"黄金广场","count":3,"avgSize":83.66666666666667,"avgPrice":15480,"location":{"lng":117.26724,"lat":31.84064}},{"name":"金悦领地","count":14,"avgSize":71.92857142857143,"avgPrice":19269,"location":{"lng":117.30831,"lat":31.82152}},{"name":"上海城市","count":8,"avgSize":98.25,"avgPrice":14373,"location":{"lng":117.20842,"lat":31.78655}},{"name":"世纪城琼林苑","count":5,"avgSize":84.6,"avgPrice":12586,"location":{"lng":117.20842,"lat":31.78655}},{"name":"桐城绿苑","count":14,"avgSize":83.5,"avgPrice":18902,"location":{"lng":117.28965,"lat":31.74776}},{"name":"禹洲华侨城（二期）柳园","count":16,"avgSize":92.75,"avgPrice":16312,"location":{"lng":117.10074,"lat":31.32495}},{"name":"公园道1号","count":5,"avgSize":66.4,"avgPrice":15454,"location":{"lng":117.10074,"lat":31.32495}},{"name":"信达西山银杏","count":13,"avgSize":68.07692307692308,"avgPrice":18948,"location":{"lng":117.22109,"lat":31.85822}},{"name":"学林雅苑","count":9,"avgSize":118.66666666666667,"avgPrice":14417,"location":{"lng":117.19716,"lat":31.75981}},{"name":"万达中心名宅","count":17,"avgSize":102.88235294117646,"avgPrice":19546,"location":{"lng":117.30279,"lat":31.85521}},{"name":"玉兰新村","count":1,"avgSize":70,"avgPrice":16427,"location":{"lng":117.20722,"lat":31.86076}},{"name":"海达小区","count":2,"avgSize":84.5,"avgPrice":14547,"location":{"lng":117.30291,"lat":31.84509}},{"name":"颐和花园锦苑小区","count":2,"avgSize":81,"avgPrice":15737,"location":{"lng":117.24233,"lat":31.85829}},{"name":"天骄国际","count":1,"avgSize":62,"avgPrice":12097,"location":{"lng":117.30678,"lat":31.87331}},{"name":"翡翠花园翠湖苑","count":0,"avgSize":null,"avgPrice":null,"location":{"lng":117.20148,"lat":31.75987}},{"name":"桐楠华苑","count":1,"avgSize":76,"avgPrice":15922,"location":{"lng":117.27789,"lat":31.82477}},{"name":"元一时代花园","count":1,"avgSize":107,"avgPrice":15872,"location":{"lng":117.30973,"lat":31.87748}},{"name":"天门湖锦城","count":0,"avgSize":null,"avgPrice":null,"location":{"lng":117.22908,"lat":31.7412}},{"name":"仕嘉名苑","count":2,"avgSize":90.5,"avgPrice":16055,"location":{"lng":117.28194,"lat":31.84037}},{"name":"幸福大街(东区)","count":1,"avgSize":82,"avgPrice":15190,"location":{"lng":117.188583,"lat":31.756574}},{"name":"康宁家园","count":2,"avgSize":191,"avgPrice":10219,"location":{"lng":117.21416,"lat":31.86136}},{"name":"绿城翡翠湖玫瑰园","count":0,"avgSize":null,"avgPrice":null,"location":{"lng":117.1954,"lat":31.77962}},{"name":"香江龙韵豪庭","count":0,"avgSize":null,"avgPrice":null,"location":{"lng":117.25173,"lat":31.72894}},{"name":"东苑雅居","count":1,"avgSize":143,"avgPrice":13222,"location":{"lng":117.25173,"lat":31.72894}},{"name":"庐阳柳林苑","count":1,"avgSize":83,"avgPrice":17444,"location":{"lng":117.34566,"lat":31.87334}},{"name":"蜀山路小学宿舍","count":2,"avgSize":73.5,"avgPrice":13766,"location":{"lng":117.24072,"lat":31.85232}},{"name":"瑞地公馆","count":2,"avgSize":82.5,"avgPrice":17020,"location":{"lng":117.26371,"lat":31.8899}},{"name":"元一名城A区","count":1,"avgSize":51,"avgPrice":16410,"location":{"lng":117.29086,"lat":31.8889}},{"name":"东苑新村","count":0,"avgSize":null,"avgPrice":null,"location":{"lng":117.31413,"lat":31.86929}},{"name":"临湖苑C区","count":1,"avgSize":97,"avgPrice":21135,"location":{"lng":117.3797,"lat":31.14878}},{"name":"和平花园","count":1,"avgSize":85,"avgPrice":16940,"location":{"lng":117.46159,"lat":31.88208}},{"name":"潜龙山庄","count":1,"avgSize":121,"avgPrice":17463,"location":{"lng":117.23034,"lat":31.84829}},{"name":"电信小区","count":1,"avgSize":94,"avgPrice":16720,"location":{"lng":117.24284,"lat":31.85196}},{"name":"中国铁路四局集团建筑公司","count":0,"avgSize":null,"avgPrice":null,"location":{"lng":117.22901,"lat":31.82057}},{"name":"白帝海棠小区","count":1,"avgSize":113,"avgPrice":15818,"location":{"lng":117.20274,"lat":31.81546}},{"name":"省药检所住宅小区","count":0,"avgSize":null,"avgPrice":null,"location":{"lng":117.27296,"lat":31.85589}},{"name":"翠竹园A区","count":1,"avgSize":96,"avgPrice":16571,"location":{"lng":117.254001,"lat":31.87178}},{"name":"盛和佳苑","count":0,"avgSize":null,"avgPrice":null,"location":{"lng":117.20511,"lat":31.92788}},{"name":"红皖家园","count":2,"avgSize":83,"avgPrice":15073,"location":{"lng":117.16684,"lat":31.85562}},{"name":"万达公馆","count":0,"avgSize":null,"avgPrice":null,"location":{"lng":117.30401,"lat":31.85935}},{"name":"安拖新村","count":2,"avgSize":65,"avgPrice":14195,"location":{"lng":117.32123,"lat":31.85464}},{"name":"琥珀新天地西苑","count":1,"avgSize":101,"avgPrice":16809,"location":{"lng":117.26489,"lat":31.81581}},{"name":"创景花园","count":0,"avgSize":null,"avgPrice":null,"location":{"lng":117.27547,"lat":31.84399}},{"name":"时尚家园","count":2,"avgSize":99.5,"avgPrice":17408,"location":{"lng":117.27206,"lat":31.84282}},{"name":"风景苑","count":1,"avgSize":87,"avgPrice":14460,"location":{"lng":117.33245,"lat":31.8778}},{"name":"名筑花园","count":1,"avgSize":90,"avgPrice":13843,"location":{"lng":117.23335,"lat":31.76463}},{"name":"越秀苑","count":0,"avgSize":null,"avgPrice":null,"location":{"lng":117.22527,"lat":31.85498}},{"name":"朝阳大厦","count":1,"avgSize":88,"avgPrice":16478,"location":{"lng":117.25801,"lat":31.83189}},{"name":"惠园","count":1,"avgSize":91,"avgPrice":10884,"location":{"lng":117.30592,"lat":31.88445}},{"name":"嘉华中心","count":0,"avgSize":null,"avgPrice":null,"location":{"lng":117.30355,"lat":31.88018}},{"name":"新安罗马花园","count":0,"avgSize":null,"avgPrice":null,"location":{"lng":117.31377,"lat":31.8781}},{"name":"海州景秀世家","count":0,"avgSize":null,"avgPrice":null,"location":{"lng":117.36288,"lat":31.87845}},{"name":"瑞泰江南","count":2,"avgSize":80,"avgPrice":13960,"location":{"lng":117.38298,"lat":31.87919}},{"name":"正创上品家苑","count":2,"avgSize":79,"avgPrice":17866,"location":{"lng":117.24897,"lat":31.83638}},{"name":"望园小区","count":0,"avgSize":null,"avgPrice":null,"location":{"lng":117.20134,"lat":31.84893}},{"name":"明珠创世纪花园","count":2,"avgSize":97,"avgPrice":16500,"location":{"lng":117.23366,"lat":31.79309}},{"name":"天和园","count":2,"avgSize":131,"avgPrice":20085,"location":{"lng":117.21103,"lat":31.80815}},{"name":"电信小区（潜山路）","count":0,"avgSize":null,"avgPrice":null,"location":{"lng":117.24284,"lat":31.85196}},{"name":"迪迈达小区","count":2,"avgSize":84.5,"avgPrice":15043,"location":{"lng":117.29746,"lat":31.84943}},{"name":"杏花南区","count":1,"avgSize":53,"avgPrice":18808,"location":{"lng":117.27232,"lat":31.86719}},{"name":"长乐苑","count":1,"avgSize":142,"avgPrice":13916,"location":{"lng":117.2295,"lat":31.86189}},{"name":"星海都市公馆","count":0,"avgSize":null,"avgPrice":null,"location":{"lng":117.26068,"lat":31.85553}},{"name":"晨风苑","count":2,"avgSize":167,"avgPrice":15159,"location":{"lng":117.26051,"lat":31.81486}},{"name":"水木春城","count":1,"avgSize":177,"avgPrice":17459,"location":{"lng":117.24344,"lat":31.88449}},{"name":"双河三村","count":1,"avgSize":40,"avgPrice":12000,"location":{"lng":117.29045,"lat":31.87421}},{"name":"安南小区","count":2,"avgSize":71,"avgPrice":18018,"location":{"lng":117.28065,"lat":31.86313}},{"name":"松湖苑","count":2,"avgSize":129.5,"avgPrice":15710,"location":{"lng":117.27166,"lat":31.83162}},{"name":"美邻馨园","count":0,"avgSize":null,"avgPrice":null,"location":{"lng":117.2833,"lat":31.83113}},{"name":"锦华小区","count":2,"avgSize":114.5,"avgPrice":14430,"location":{"lng":117.29383,"lat":31.86443}},{"name":"安北小区","count":2,"avgSize":50,"avgPrice":17975,"location":{"lng":117.27981,"lat":31.86416}},{"name":"海亚相府花园","count":0,"avgSize":null,"avgPrice":null,"location":{"lng":117.29291,"lat":31.86489}},{"name":"胜利大厦","count":2,"avgSize":130,"avgPrice":10628,"location":{"lng":117.30778,"lat":31.88736}},{"name":"霍邱路37号","count":2,"avgSize":113.5,"avgPrice":17556,"location":{"lng":117.28138,"lat":31.8649}},{"name":"飞虹小区","count":2,"avgSize":93,"avgPrice":16209,"location":{"lng":117.25243,"lat":31.85499}},{"name":"桐城路104号","count":2,"avgSize":54.5,"avgPrice":19421,"location":{"lng":117.28134,"lat":31.85447}},{"name":"明远新村","count":1,"avgSize":190,"avgPrice":11521,"location":{"lng":117.25951,"lat":31.83394}},{"name":"翡翠园小区","count":1,"avgSize":83,"avgPrice":16868,"location":{"lng":117.26076,"lat":31.86584}},{"name":"奥林阁","count":0,"avgSize":null,"avgPrice":null,"location":{"lng":117.26148,"lat":31.86403}},{"name":"翡翠公寓","count":1,"avgSize":88,"avgPrice":17025,"location":{"lng":117.20071,"lat":31.77491}},{"name":"供电西村","count":1,"avgSize":55,"avgPrice":16355,"location":{"lng":117.26873,"lat":31.82778}},{"name":"莱茵河畔花园","count":0,"avgSize":null,"avgPrice":null,"location":{"lng":117.34405,"lat":31.88786}},{"name":"奥林花园园景苑","count":1,"avgSize":183,"avgPrice":13986,"location":{"lng":117.25634,"lat":31.86668}},{"name":"康居馨苑","count":0,"avgSize":null,"avgPrice":null,"location":{"lng":117.25573,"lat":31.88132}},{"name":"景色小区","count":2,"avgSize":47.5,"avgPrice":15094,"location":{"lng":117.27939,"lat":31.84145}},{"name":"景色家园","count":1,"avgSize":160,"avgPrice":13000,"location":{"lng":117.27939,"lat":31.84145}},{"name":"文华阁","count":1,"avgSize":48,"avgPrice":22917,"location":{"lng":117.27802,"lat":31.73544}},{"name":"新华阳光国际","count":0,"avgSize":null,"avgPrice":null,"location":{"lng":117.16167,"lat":31.8021}},{"name":"御华园","count":2,"avgSize":174.5,"avgPrice":14640,"location":{"lng":117.27764,"lat":31.88218}},{"name":"淝河佳苑","count":2,"avgSize":90.5,"avgPrice":13818,"location":{"lng":117.31577,"lat":31.82925}},{"name":"福星嘉苑","count":0,"avgSize":null,"avgPrice":null,"location":{"lng":117.25942,"lat":31.88133}},{"name":"菱水苑北区","count":0,"avgSize":null,"avgPrice":null,"location":{"lng":117.28637,"lat":31.8196}},{"name":"帝豪星港湾","count":0,"avgSize":null,"avgPrice":null,"location":{"lng":117.33925,"lat":31.89798}},{"name":"新文采花园","count":0,"avgSize":null,"avgPrice":null,"location":{"lng":117.21003,"lat":31.8591}},{"name":"天使苑铂金时代","count":0,"avgSize":null,"avgPrice":null,"location":{"lng":117.3402,"lat":31.87235}},{"name":"市一院宿舍","count":2,"avgSize":71.5,"avgPrice":16158,"location":{"lng":117.28142,"lat":31.86793}},{"name":"高压开关厂宿舍","count":2,"avgSize":93,"avgPrice":16125,"location":{"lng":117.28142,"lat":31.86793}},{"name":"金徽阳光大厦","count":1,"avgSize":87,"avgPrice":13794,"location":{"lng":117.28728,"lat":31.84884}},{"name":"万振逍遥苑3期","count":0,"avgSize":null,"avgPrice":null,"location":{"lng":117.30446,"lat":31.83489}},{"name":"瑞龙公馆","count":0,"avgSize":null,"avgPrice":null,"location":{"lng":117.27635,"lat":31.87873}},{"name":"荣城南苑(北区)","count":1,"avgSize":78,"avgPrice":12052,"location":{"lng":117.27446,"lat":31.91379}},{"name":"云顶雅苑","count":1,"avgSize":45,"avgPrice":12830,"location":{"lng":117.27258,"lat":31.93773}},{"name":"集装箱宿舍","count":1,"avgSize":54,"avgPrice":15118,"location":{"lng":117.29088,"lat":31.85199}},{"name":"安徽粮食工程职业学院（宿舍区）","count":0,"avgSize":null,"avgPrice":null,"location":{"lng":117.39675,"lat":31.91614}},{"name":"琥珀名城和园","count":1,"avgSize":86,"avgPrice":14983,"location":{"lng":117.37857,"lat":31.86924}},{"name":"国耀园上园","count":0,"avgSize":null,"avgPrice":null,"location":{"lng":117.35594,"lat":31.88605}},{"name":"亚华新城邦雅轩","count":0,"avgSize":null,"avgPrice":null,"location":{"lng":117.24779,"lat":31.81783}},{"name":"湖东新村","count":0,"avgSize":null,"avgPrice":null,"location":{"lng":117.219,"lat":31.85638}},{"name":"汇景苑","count":1,"avgSize":107,"avgPrice":13525,"location":{"lng":117.21507,"lat":31.78662}},{"name":"商务厅宿舍","count":2,"avgSize":25,"avgPrice":19726,"location":{"lng":117.29226,"lat":31.85342}},{"name":"绿都花园","count":2,"avgSize":60.5,"avgPrice":14456,"location":{"lng":117.2892,"lat":31.88426}},{"name":"罗兰德小区","count":0,"avgSize":null,"avgPrice":null,"location":{"lng":117.2766,"lat":31.87221}},{"name":"安粮双景佳苑","count":0,"avgSize":null,"avgPrice":null,"location":{"lng":117.32476,"lat":31.89182}},{"name":"朝阳小区","count":0,"avgSize":null,"avgPrice":null,"location":{"lng":117.25803,"lat":31.83239}},{"name":"青阳新村","count":1,"avgSize":40,"avgPrice":19236,"location":{"lng":117.24111,"lat":31.85284}},{"name":"华地公馆(东区)","count":0,"avgSize":null,"avgPrice":null,"location":{"lng":117.22587,"lat":31.8318}},{"name":"省医红会小区","count":0,"avgSize":null,"avgPrice":null,"location":{"lng":117.22713,"lat":31.85162}},{"name":"九龙园","count":1,"avgSize":110,"avgPrice":13170,"location":{"lng":117.18248,"lat":31.77338}},{"name":"阳光A区","count":1,"avgSize":76,"avgPrice":19079,"location":{"lng":117.18248,"lat":31.77338}},{"name":"滨湖世纪城福徽苑","count":1,"avgSize":236,"avgPrice":16093,"location":{"lng":117.28713,"lat":31.7413}},{"name":"徽商国际大厦","count":0,"avgSize":null,"avgPrice":null,"location":{"lng":117.27894,"lat":31.8695}},{"name":"彩虹家园","count":1,"avgSize":124,"avgPrice":12464,"location":{"lng":117.24273,"lat":31.85028}},{"name":"铂爵公馆","count":0,"avgSize":null,"avgPrice":null,"location":{"lng":117.19185,"lat":31.78353}},{"name":"和谐家园","count":1,"avgSize":197,"avgPrice":16752,"location":{"lng":117.2604,"lat":31.86844}},{"name":"青年小区","count":2,"avgSize":72,"avgPrice":16955,"location":{"lng":117.29331,"lat":31.8366}},{"name":"临湖苑A区","count":1,"avgSize":94,"avgPrice":20070,"location":{"lng":117.3797,"lat":31.14878}},{"name":"柏悦公馆","count":1,"avgSize":140,"avgPrice":24983,"location":{"lng":117.22563,"lat":31.79952}},{"name":"大众巷","count":0,"avgSize":null,"avgPrice":null,"location":{"lng":117.27088,"lat":31.86176}},{"name":"秀水花园","count":1,"avgSize":115,"avgPrice":16174,"location":{"lng":117.23958,"lat":31.8318}},{"name":"丽都名邸","count":1,"avgSize":153,"avgPrice":9879,"location":{"lng":117.28463,"lat":31.89809}},{"name":"琥珀东村","count":1,"avgSize":109,"avgPrice":19635,"location":{"lng":117.26718,"lat":31.86984}},{"name":"独秀园","count":1,"avgSize":72,"avgPrice":12259,"location":{"lng":117.32201,"lat":31.83639}},{"name":"福禄园","count":0,"avgSize":null,"avgPrice":null,"location":{"lng":117.25629,"lat":31.78175}},{"name":"皇马花园","count":0,"avgSize":null,"avgPrice":null,"location":{"lng":117.38588,"lat":31.87711}},{"name":"金寨路380号","count":1,"avgSize":68,"avgPrice":23001,"location":{"lng":117.27625,"lat":31.85778}},{"name":"红鑫新村","count":0,"avgSize":null,"avgPrice":null,"location":{"lng":117.23373,"lat":31.83507}},{"name":"翠微北园","count":2,"avgSize":85,"avgPrice":13530,"location":{"lng":117.20319,"lat":31.78843}},{"name":"世纪阳光花园金阳苑","count":1,"avgSize":110,"avgPrice":20307,"location":{"lng":117.2959,"lat":31.83564}},{"name":"珠光雅苑","count":0,"avgSize":null,"avgPrice":null,"location":{"lng":117.29529,"lat":31.82728}},{"name":"南郡明珠","count":0,"avgSize":null,"avgPrice":null,"location":{"lng":117.2431,"lat":31.74055}},{"name":"瑶东北村","count":0,"avgSize":null,"avgPrice":null,"location":{"lng":117.32108,"lat":31.89238}},{"name":"紫竹苑","count":0,"avgSize":null,"avgPrice":null,"location":{"lng":117.27057,"lat":31.80507}},{"name":"琥珀名城沁园","count":0,"avgSize":null,"avgPrice":null,"location":{"lng":117.3785,"lat":31.86984}},{"name":"庐江大院","count":1,"avgSize":70,"avgPrice":18352,"location":{"lng":117.28846,"lat":31.85731}},{"name":"华水公寓","count":1,"avgSize":122,"avgPrice":14031,"location":{"lng":117.27613,"lat":31.87893}},{"name":"荣电小区","count":1,"avgSize":63,"avgPrice":14147,"location":{"lng":117.28517,"lat":31.89167}},{"name":"金蓝湾","count":1,"avgSize":95,"avgPrice":15691,"location":{"lng":117.27104,"lat":31.87555}},{"name":"南国城市花园","count":1,"avgSize":125,"avgPrice":16000,"location":{"lng":117.26983,"lat":31.87978}},{"name":"奥林花园2期","count":0,"avgSize":null,"avgPrice":null,"location":{"lng":117.25255,"lat":31.86971}},{"name":"翠竹园B区","count":0,"avgSize":null,"avgPrice":null,"location":{"lng":117.254001,"lat":31.87178}},{"name":"琥珀公寓","count":0,"avgSize":null,"avgPrice":null,"location":{"lng":117.25972,"lat":31.87}},{"name":"琥珀坛村","count":0,"avgSize":null,"avgPrice":null,"location":{"lng":117.26526,"lat":31.86501}},{"name":"康居时代家园南区","count":1,"avgSize":142,"avgPrice":18221,"location":{"lng":117.26526,"lat":31.86501}},{"name":"万小店小区","count":0,"avgSize":null,"avgPrice":null,"location":{"lng":117.25231,"lat":31.87292}},{"name":"新华文景苑","count":0,"avgSize":null,"avgPrice":null,"location":{"lng":117.27975,"lat":31.88209}},{"name":"新荷园(南区)","count":0,"avgSize":null,"avgPrice":null,"location":{"lng":117.27099,"lat":31.88769}},{"name":"怡园小区","count":0,"avgSize":null,"avgPrice":null,"location":{"lng":117.27527,"lat":31.88832}},{"name":"振源新村","count":0,"avgSize":null,"avgPrice":null,"location":{"lng":117.28646,"lat":31.88058}},{"name":"气象苑","count":0,"avgSize":null,"avgPrice":null,"location":{"lng":117.24368,"lat":31.86499}},{"name":"水晶苑（庐阳区）","count":1,"avgSize":35,"avgPrice":15127,"location":{"lng":117.2558,"lat":31.8744}},{"name":"颐和花园清苑","count":1,"avgSize":98,"avgPrice":16837,"location":{"lng":117.23979,"lat":31.8638}},{"name":"爱国巷","count":1,"avgSize":58,"avgPrice":18478,"location":{"lng":117.28791,"lat":31.85972}},{"name":"气象局宿舍","count":1,"avgSize":70,"avgPrice":20715,"location":{"lng":117.83526,"lat":31.57633}},{"name":"宣城路101","count":0,"avgSize":null,"avgPrice":null,"location":{"lng":117.29433,"lat":31.85374}},{"name":"邮政局宿舍","count":1,"avgSize":53,"avgPrice":19583,"location":{"lng":117.27856,"lat":31.85173}},{"name":"绿怡居西小高层","count":0,"avgSize":null,"avgPrice":null,"location":{"lng":117.27856,"lat":31.85173}},{"name":"碧林园","count":0,"avgSize":null,"avgPrice":null,"location":{"lng":117.24813,"lat":31.85915}},{"name":"合安花园","count":0,"avgSize":null,"avgPrice":null,"location":{"lng":117.25228,"lat":31.83276}},{"name":"利恒嘉苑","count":0,"avgSize":null,"avgPrice":null,"location":{"lng":117.23841,"lat":31.83217}},{"name":"汽修小区","count":1,"avgSize":80,"avgPrice":15375,"location":{"lng":117.24726,"lat":31.82827}},{"name":"绿景家园","count":0,"avgSize":null,"avgPrice":null,"location":{"lng":117.24774,"lat":31.85789}},{"name":"新泉嘉园","count":0,"avgSize":null,"avgPrice":null,"location":{"lng":117.29268,"lat":31.88436}},{"name":"锦怡家园","count":0,"avgSize":null,"avgPrice":null,"location":{"lng":117.29504,"lat":31.87842}},{"name":"国信嘉园","count":1,"avgSize":117,"avgPrice":12789,"location":{"lng":117.2999,"lat":31.88566}},{"name":"光明新村","count":1,"avgSize":38,"avgPrice":20250,"location":{"lng":117.27459,"lat":31.85945}},{"name":"邮电东村","count":0,"avgSize":null,"avgPrice":null,"location":{"lng":117.28314,"lat":31.85259}},{"name":"复兴家园","count":0,"avgSize":null,"avgPrice":null,"location":{"lng":117.13751,"lat":31.81822}},{"name":"吉徽苑","count":1,"avgSize":78,"avgPrice":11023,"location":{"lng":117.28314,"lat":31.85259}},{"name":"方兴园","count":0,"avgSize":null,"avgPrice":null,"location":{"lng":117.20773,"lat":31.74912}},{"name":"铁路二村","count":1,"avgSize":49,"avgPrice":15238,"location":{"lng":117.31127,"lat":31.87258}},{"name":"法院宿舍（淮河西路）","count":0,"avgSize":null,"avgPrice":null,"location":{"lng":117.27406,"lat":31.86223}},{"name":"巴黎都市波旁宫","count":0,"avgSize":null,"avgPrice":null,"location":{"lng":120.77436,"lat":30.7442}},{"name":"龙兴花园","count":0,"avgSize":null,"avgPrice":null,"location":{"lng":117.27779,"lat":31.89248}},{"name":"海亮红玺台","count":0,"avgSize":null,"avgPrice":null,"location":{"lng":117.26624,"lat":31.89197}},{"name":"兴海苑","count":0,"avgSize":null,"avgPrice":null,"location":{"lng":117.30468,"lat":31.90363}},{"name":"天门湖花园","count":0,"avgSize":null,"avgPrice":null,"location":{"lng":117.2303,"lat":31.74444}},{"name":"南屏家园","count":1,"avgSize":103,"avgPrice":14661,"location":{"lng":117.24626,"lat":31.82813}},{"name":"临湖苑B区","count":0,"avgSize":null,"avgPrice":null,"location":{"lng":117.3797,"lat":31.14878}},{"name":"水利厅机关宿舍","count":1,"avgSize":57,"avgPrice":13817,"location":{"lng":117.27847,"lat":31.83847}},{"name":"金水湾花园","count":0,"avgSize":null,"avgPrice":null,"location":{"lng":117.35181,"lat":31.8842}},{"name":"又一居","count":1,"avgSize":170,"avgPrice":15000,"location":{"lng":117.30058,"lat":31.85589}},{"name":"上城国际罗兰苑","count":1,"avgSize":143,"avgPrice":14646,"location":{"lng":117.27914,"lat":31.89585}},{"name":"省新闻出版局宿舍","count":0,"avgSize":null,"avgPrice":null,"location":{"lng":117.2731,"lat":31.85948}},{"name":"国耀星达城","count":0,"avgSize":null,"avgPrice":null,"location":{"lng":117.21163,"lat":31.77545}},{"name":"丽水天锦苑","count":0,"avgSize":null,"avgPrice":null,"location":{"lng":117.37746,"lat":31.87586}},{"name":"和欣家园","count":0,"avgSize":null,"avgPrice":null,"location":{"lng":117.30223,"lat":31.80371}},{"name":"井巷","count":0,"avgSize":null,"avgPrice":null,"location":{"lng":117.28831,"lat":31.87215}},{"name":"省地矿局","count":0,"avgSize":null,"avgPrice":null,"location":{"lng":117.36083,"lat":31.86788}},{"name":"金桥湾花园","count":0,"avgSize":null,"avgPrice":null,"location":{"lng":117.2988,"lat":31.88651}},{"name":"花溪龙庭","count":0,"avgSize":null,"avgPrice":null,"location":{"lng":117.38317,"lat":31.87653}},{"name":"省建机厂宿舍","count":0,"avgSize":null,"avgPrice":null,"location":{"lng":117.23363,"lat":31.83942}},{"name":"明珠华庭","count":0,"avgSize":null,"avgPrice":null,"location":{"lng":117.23059,"lat":31.76477}},{"name":"宿州路129号","count":0,"avgSize":null,"avgPrice":null,"location":{"lng":117.28943,"lat":31.86545}},{"name":"海亮九玺","count":0,"avgSize":null,"avgPrice":null,"location":{"lng":117.14162,"lat":31.8465}},{"name":"琥珀新天地东苑","count":0,"avgSize":null,"avgPrice":null,"location":{"lng":117.26576,"lat":31.81711}},{"name":"徽商望湖苑","count":0,"avgSize":null,"avgPrice":null,"location":{"lng":117.28053,"lat":31.83131}},{"name":"竹苑小区","count":0,"avgSize":null,"avgPrice":null,"location":{"lng":117.27036,"lat":31.81526}},{"name":"方桥小区","count":0,"avgSize":null,"avgPrice":null,"location":{"lng":117.30566,"lat":31.85063}},{"name":"金水花园A区","count":0,"avgSize":null,"avgPrice":null,"location":{"lng":117.27523,"lat":31.83771}},{"name":"美菱集团公司","count":1,"avgSize":64,"avgPrice":17998,"location":{"lng":117.28912,"lat":31.74372}},{"name":"省检察院职工楼","count":0,"avgSize":null,"avgPrice":null,"location":{"lng":103.9485,"lat":30.98803}},{"name":"曙安新村","count":0,"avgSize":null,"avgPrice":null,"location":{"lng":117.27385,"lat":31.83865}},{"name":"芳邻家园","count":0,"avgSize":null,"avgPrice":null,"location":{"lng":117.33366,"lat":31.87313}},{"name":"康城静林湾","count":0,"avgSize":null,"avgPrice":null,"location":{"lng":117.32294,"lat":31.89793}},{"name":"新园小区","count":0,"avgSize":null,"avgPrice":null,"location":{"lng":117.30466,"lat":31.85129}},{"name":"栢景轩","count":0,"avgSize":null,"avgPrice":null,"location":{"lng":117.32589,"lat":31.85731}},{"name":"大通小区","count":0,"avgSize":null,"avgPrice":null,"location":{"lng":117.31233,"lat":31.86068}},{"name":"周谷堆村民恢复楼","count":1,"avgSize":59,"avgPrice":15203,"location":{"lng":117.30611,"lat":31.84707}},{"name":"砂轮新村","count":1,"avgSize":42,"avgPrice":16444,"location":{"lng":117.30611,"lat":31.84707}},{"name":"林语人家","count":0,"avgSize":null,"avgPrice":null,"location":{"lng":117.31316,"lat":31.85681}},{"name":"江汽五村","count":0,"avgSize":null,"avgPrice":null,"location":{"lng":117.22346,"lat":31.76071}},{"name":"姚公新苑","count":0,"avgSize":null,"avgPrice":null,"location":{"lng":117.25473,"lat":31.80765}},{"name":"秀珍大厦","count":0,"avgSize":null,"avgPrice":null,"location":{"lng":117.30348,"lat":31.86952}},{"name":"喻苑新村","count":0,"avgSize":null,"avgPrice":null,"location":{"lng":117.30524,"lat":31.86711}},{"name":"中房名都","count":0,"avgSize":null,"avgPrice":null,"location":{"lng":117.30589,"lat":31.86556}},{"name":"临湖雅苑","count":0,"avgSize":null,"avgPrice":null,"location":{"lng":117.19384,"lat":31.95373}},{"name":"轴承新村","count":1,"avgSize":58,"avgPrice":15692,"location":{"lng":117.25338,"lat":31.82464}},{"name":"河畔雅居","count":0,"avgSize":null,"avgPrice":null,"location":{"lng":117.38069,"lat":31.8743}},{"name":"九华华龙苑","count":0,"avgSize":null,"avgPrice":null,"location":{"lng":117.35956,"lat":31.86601}},{"name":"瑞泰城市家园","count":0,"avgSize":null,"avgPrice":null,"location":{"lng":117.3699,"lat":31.87183}},{"name":"苹果家园","count":0,"avgSize":null,"avgPrice":null,"location":{"lng":117.27445,"lat":31.25945}},{"name":"宝业东城广场","count":1,"avgSize":96,"avgPrice":15572,"location":{"lng":117.33756,"lat":31.87006}},{"name":"当涂小区","count":1,"avgSize":64,"avgPrice":11719,"location":{"lng":117.33589,"lat":31.85873}},{"name":"花冲苑","count":1,"avgSize":90,"avgPrice":13833,"location":{"lng":117.33588,"lat":31.87271}},{"name":"花溪新村","count":1,"avgSize":58,"avgPrice":13449,"location":{"lng":117.33484,"lat":31.8622}},{"name":"科研小区","count":0,"avgSize":null,"avgPrice":null,"location":{"lng":117.32778,"lat":31.86195}},{"name":"铜陵东村","count":1,"avgSize":43,"avgPrice":12972,"location":{"lng":117.27505,"lat":31.89858}},{"name":"圣地雅阁A区","count":0,"avgSize":null,"avgPrice":null,"location":{"lng":117.39605,"lat":31.87375}},{"name":"众诚公寓","count":0,"avgSize":null,"avgPrice":null,"location":{"lng":117.23401,"lat":31.85123}},{"name":"丰乐苑","count":0,"avgSize":null,"avgPrice":null,"location":{"lng":117.23139,"lat":31.8594}},{"name":"辰元小区","count":0,"avgSize":null,"avgPrice":null,"location":{"lng":117.23898,"lat":31.84995}},{"name":"合邮合作化31号大院","count":1,"avgSize":63,"avgPrice":15635,"location":{"lng":117.25038,"lat":31.83991}},{"name":"化机小区","count":0,"avgSize":null,"avgPrice":null,"location":{"lng":117.25083,"lat":31.83505}},{"name":"石门路小区","count":0,"avgSize":null,"avgPrice":null,"location":{"lng":117.21841,"lat":31.77594}},{"name":"植保路小区","count":0,"avgSize":null,"avgPrice":null,"location":{"lng":117.2335,"lat":31.84539}},{"name":"徽京剧院","count":1,"avgSize":55,"avgPrice":19091,"location":{"lng":117.28258,"lat":31.85438}},{"name":"安徽经贸委宿舍冶金小区","count":1,"avgSize":78,"avgPrice":21539,"location":{"lng":117.28611,"lat":31.858}},{"name":"拱辰社区","count":0,"avgSize":null,"avgPrice":null,"location":{"lng":117.28804,"lat":31.87112}},{"name":"合肥市公安局第一生活区","count":1,"avgSize":66,"avgPrice":18826,"location":{"lng":117.28804,"lat":31.87112}},{"name":"远大家园","count":1,"avgSize":188,"avgPrice":10905,"location":{"lng":117.30385,"lat":31.84787}},{"name":"芜湖路49号宿舍","count":1,"avgSize":66,"avgPrice":16490,"location":{"lng":117.29985,"lat":31.85734}},{"name":"周谷堆小区","count":1,"avgSize":96,"avgPrice":13267,"location":{"lng":117.30666,"lat":31.84761}},{"name":"阜阳路150号","count":0,"avgSize":null,"avgPrice":null,"location":{"lng":117.287066,"lat":31.874173}},{"name":"阜南路66号","count":1,"avgSize":77,"avgPrice":17086,"location":{"lng":117.28392,"lat":31.8705}},{"name":"安徽省话剧院","count":0,"avgSize":null,"avgPrice":null,"location":{"lng":117.28442,"lat":31.86462}},{"name":"吉瑞泰盛国际生活广场","count":0,"avgSize":null,"avgPrice":null,"location":{"lng":117.28767,"lat":31.81239}},{"name":"宏图新村","count":0,"avgSize":null,"avgPrice":null,"location":{"lng":117.28972,"lat":31.87888}},{"name":"中医学院宿舍","count":0,"avgSize":null,"avgPrice":null,"location":{"lng":117.2828,"lat":31.87005}},{"name":"广电局宿舍","count":1,"avgSize":51,"avgPrice":22049,"location":{"lng":117.02442,"lat":36.65041}},{"name":"北门街53号","count":0,"avgSize":null,"avgPrice":null,"location":{"lng":117.24347,"lat":31.81579}},{"name":"拱辰街89号","count":1,"avgSize":57,"avgPrice":14724,"location":{"lng":117.289261,"lat":31.872658}},{"name":"凤翔家园","count":0,"avgSize":null,"avgPrice":null,"location":{"lng":117.32184,"lat":31.87324}},{"name":"合肥市勘察院宿舍","count":1,"avgSize":63,"avgPrice":14489,"location":{"lng":114.51531,"lat":38.02944}},{"name":"蓝筹国际","count":0,"avgSize":null,"avgPrice":null,"location":{"lng":117.27789,"lat":31.88982}},{"name":"金色名郡","count":12,"avgSize":85,"avgPrice":18923,"location":{"lng":117.24032,"lat":31.83064}},{"name":"国耀花半里","count":12,"avgSize":84,"avgPrice":18388,"location":{"lng":117.20327,"lat":31.77893}},{"name":"国光万豪广场","count":9,"avgSize":55.22222222222222,"avgPrice":14201,"location":{"lng":117.28435,"lat":31.88041}},{"name":"一里洋房","count":6,"avgSize":83.83333333333333,"avgPrice":16341,"location":{"lng":117.19061,"lat":31.78466}},{"name":"原树提香","count":17,"avgSize":83.70588235294117,"avgPrice":16236,"location":{"lng":117.18328,"lat":31.75006}},{"name":"蓝鼎滨湖假日清华园","count":7,"avgSize":77.57142857142857,"avgPrice":21233,"location":{"lng":117.2932,"lat":31.73486}},{"name":"新华优阁","count":7,"avgSize":47.285714285714285,"avgPrice":19406,"location":{"lng":117.23073,"lat":31.84422}},{"name":"通和易居同辉北苑","count":9,"avgSize":40.22222222222222,"avgPrice":18294,"location":{"lng":117.24915,"lat":31.84395}},{"name":"碧水源","count":4,"avgSize":89.75,"avgPrice":17083,"location":{"lng":117.23933,"lat":31.89462}},{"name":"西环中心广场","count":10,"avgSize":78.2,"avgPrice":16530,"location":{"lng":117.22859,"lat":31.84034}},{"name":"淮矿馥邦天下","count":10,"avgSize":119.9,"avgPrice":17287,"location":{"lng":117.19862,"lat":31.81403}},{"name":"世纪城振徽苑","count":9,"avgSize":123.11111111111111,"avgPrice":18635,"location":{"lng":117.29429,"lat":31.7423}},{"name":"颐园世家","count":16,"avgSize":123.5625,"avgPrice":22645,"location":{"lng":117.22054,"lat":31.79942}},{"name":"山水名城","count":9,"avgSize":140.22222222222223,"avgPrice":20907,"location":{"lng":117.21431,"lat":31.81079}},{"name":"新华国际公寓","count":7,"avgSize":51.142857142857146,"avgPrice":18055,"location":{"lng":117.23314,"lat":31.83812}},{"name":"柏林春天","count":9,"avgSize":113.88888888888889,"avgPrice":18130,"location":{"lng":117.29985,"lat":31.82615}},{"name":"大溪地天逸轩","count":9,"avgSize":80.11111111111111,"avgPrice":19617,"location":{"lng":117.2206,"lat":31.84318}},{"name":"经典华城","count":12,"avgSize":71.08333333333333,"avgPrice":18371,"location":{"lng":117.2112,"lat":31.7811}},{"name":"凤凰城家家景园一期","count":13,"avgSize":102.6923076923077,"avgPrice":15643,"location":{"lng":117.23245,"lat":31.8567}},{"name":"蓝山花园","count":7,"avgSize":113.71428571428571,"avgPrice":25086,"location":{"lng":117.30639,"lat":31.73857}},{"name":"明发商业广场","count":1,"avgSize":57,"avgPrice":8422,"location":{"lng":117.23203,"lat":31.89986}},{"name":"绿城桂花园","count":6,"avgSize":146,"avgPrice":20322,"location":{"lng":117.19765,"lat":31.83761}},{"name":"信达水岸茗都","count":14,"avgSize":129.07142857142858,"avgPrice":21736,"location":{"lng":117.21622,"lat":31.79962}},{"name":"安居苑（东村）","count":10,"avgSize":100,"avgPrice":20604,"location":{"lng":117.23564,"lat":31.84786}},{"name":"蜀南庭苑","count":5,"avgSize":75.4,"avgPrice":15567,"location":{"lng":117.16423,"lat":31.82738}},{"name":"金大地1912","count":10,"avgSize":66.8,"avgPrice":20501,"location":{"lng":117.22367,"lat":31.84135}},{"name":"滨湖和园","count":7,"avgSize":83.42857142857143,"avgPrice":18519,"location":{"lng":117.29429,"lat":31.73948}},{"name":"鑫苑望江花园","count":10,"avgSize":78.7,"avgPrice":17688,"location":{"lng":117.2743,"lat":31.82597}},{"name":"华润幸福里","count":15,"avgSize":70.4,"avgPrice":19804,"location":{"lng":117.24796,"lat":31.82871}},{"name":"国建香榭水都","count":12,"avgSize":123.58333333333333,"avgPrice":23046,"location":{"lng":117.2146,"lat":31.80459}},{"name":"华建小区","count":0,"avgSize":null,"avgPrice":null,"location":{"lng":117.28799,"lat":31.88522}},{"name":"官亭路8号","count":1,"avgSize":58,"avgPrice":18679,"location":{"lng":117.256,"lat":31.85615}},{"name":"宿州路169号","count":1,"avgSize":72,"avgPrice":20034,"location":{"lng":117.28971,"lat":31.86836}},{"name":"民政厅大院","count":1,"avgSize":72,"avgPrice":15000,"location":{"lng":117.28008,"lat":31.86544}},{"name":"国轩假日","count":0,"avgSize":null,"avgPrice":null,"location":{"lng":117.31492,"lat":31.89036}},{"name":"寿春五巷","count":1,"avgSize":55,"avgPrice":16364,"location":{"lng":117.28754,"lat":31.86647}},{"name":"合肥市教院","count":1,"avgSize":67,"avgPrice":18629,"location":{"lng":117.277,"lat":31.83876}},{"name":"儒商公寓","count":0,"avgSize":null,"avgPrice":null,"location":{"lng":117.28174,"lat":31.88784}},{"name":"鸣香苑","count":0,"avgSize":null,"avgPrice":null,"location":{"lng":117.3105,"lat":31.85524}},{"name":"和煦园南村","count":1,"avgSize":127,"avgPrice":16536,"location":{"lng":117.27341,"lat":31.88317}},{"name":"新华书店宿舍","count":1,"avgSize":88,"avgPrice":17044,"location":{"lng":117.864739,"lat":31.595926}},{"name":"中铁四局集团第八工程公司","count":1,"avgSize":68,"avgPrice":12355,"location":{"lng":117.28425,"lat":31.90182}},{"name":"寿春路18号","count":0,"avgSize":null,"avgPrice":null,"location":{"lng":117.29482,"lat":31.86594}},{"name":"测绘局宿舍","count":1,"avgSize":80,"avgPrice":21095,"location":{"lng":117.25179,"lat":31.84872}},{"name":"淮河路439号","count":1,"avgSize":51,"avgPrice":19272,"location":{"lng":117.276015,"lat":31.866965}},{"name":"中铁四局八分公司合肥西站办事处","count":1,"avgSize":59,"avgPrice":12684,"location":{"lng":117.21669,"lat":31.83198}},{"name":"信达花样年华","count":1,"avgSize":45,"avgPrice":20000,"location":{"lng":117.28818,"lat":31.8612}},{"name":"淮河路450号","count":1,"avgSize":52,"avgPrice":16488,"location":{"lng":117.27739,"lat":31.86719}},{"name":"高河埂新村","count":1,"avgSize":79,"avgPrice":14430,"location":{"lng":117.27809,"lat":31.87574}},{"name":"梨花巷7号","count":0,"avgSize":null,"avgPrice":null,"location":{"lng":117.28998,"lat":31.86072}},{"name":"徽州大道154号","count":1,"avgSize":84,"avgPrice":13667,"location":{"lng":117.28674,"lat":31.85602}},{"name":"大店农贸税务所","count":1,"avgSize":72,"avgPrice":13045,"location":{"lng":117.39767,"lat":31.86865}},{"name":"市总工会宿舍","count":1,"avgSize":77,"avgPrice":14754,"location":{"lng":117.39767,"lat":31.86865}},{"name":"金寨路375号","count":0,"avgSize":null,"avgPrice":null,"location":{"lng":117.22401,"lat":31.82307}},{"name":"长二小宿舍","count":0,"avgSize":null,"avgPrice":null,"location":{"lng":117.29379,"lat":31.86057}},{"name":"曹郢巷14号","count":1,"avgSize":63,"avgPrice":15004,"location":{"lng":117.26541,"lat":31.83739}},{"name":"海亚花园","count":1,"avgSize":289,"avgPrice":13836,"location":{"lng":117.29291,"lat":31.86489}},{"name":"黄山路445号","count":0,"avgSize":null,"avgPrice":null,"location":{"lng":117.24742,"lat":31.84103}},{"name":"鑫源花园","count":0,"avgSize":null,"avgPrice":null,"location":{"lng":117.29115,"lat":31.89409}},{"name":"五河东路工商局","count":1,"avgSize":57,"avgPrice":13067,"location":{"lng":117.28508,"lat":31.876795}},{"name":"天下锦城爱丁堡","count":1,"avgSize":127,"avgPrice":19292,"location":{"lng":117.28508,"lat":31.876795}},{"name":"居河园","count":0,"avgSize":null,"avgPrice":null,"location":{"lng":117.25805,"lat":31.80904}},{"name":"阳光上南嘉园","count":1,"avgSize":98,"avgPrice":14036,"location":{"lng":117.31426,"lat":31.83992}},{"name":"操兵巷","count":1,"avgSize":101,"avgPrice":16245,"location":{"lng":117.28934,"lat":31.8688}},{"name":"华馨苑","count":1,"avgSize":140,"avgPrice":18315,"location":{"lng":117.26837,"lat":31.8965}},{"name":"国徽苑","count":0,"avgSize":null,"avgPrice":null,"location":{"lng":117.24327,"lat":31.99883}},{"name":"阳光花园","count":0,"avgSize":null,"avgPrice":null,"location":{"lng":117.28102,"lat":31.24812}},{"name":"二轻局宿舍","count":1,"avgSize":71,"avgPrice":16620,"location":{"lng":117.28102,"lat":31.24812}},{"name":"铁静苑A区","count":1,"avgSize":67,"avgPrice":12773,"location":{"lng":117.27394,"lat":31.86688}},{"name":"静安新城南区","count":0,"avgSize":null,"avgPrice":null,"location":{"lng":117.375237,"lat":31.859972}},{"name":"新华大厦","count":1,"avgSize":137,"avgPrice":11298,"location":{"lng":117.28179,"lat":31.86593}},{"name":"合肥晚报社宿舍","count":0,"avgSize":null,"avgPrice":null,"location":{"lng":117.28664,"lat":31.87002}},{"name":"古井丰水源","count":1,"avgSize":127,"avgPrice":14958,"location":{"lng":117.29988,"lat":31.87265}},{"name":"维也纳森林花园","count":1,"avgSize":93,"avgPrice":20323,"location":{"lng":117.22396,"lat":31.83446}},{"name":"公路局材料站宿舍","count":0,"avgSize":null,"avgPrice":null,"location":{"lng":117.30998,"lat":31.8654}},{"name":"蒙城路182号","count":1,"avgSize":66,"avgPrice":18940,"location":{"lng":117.27866,"lat":31.87019}},{"name":"杏建小区","count":1,"avgSize":78,"avgPrice":14373,"location":{"lng":117.257,"lat":31.87965}},{"name":"成套局宿舍","count":1,"avgSize":75,"avgPrice":20000,"location":{"lng":117.22901,"lat":31.82057}},{"name":"啤酒厂宿舍","count":0,"avgSize":null,"avgPrice":null,"location":{"lng":117.23706,"lat":31.8495}},{"name":"香江生态名郡","count":0,"avgSize":null,"avgPrice":null,"location":{"lng":117.32654,"lat":31.90159}},{"name":"省政协恢复楼","count":0,"avgSize":null,"avgPrice":null,"location":{"lng":117.22901,"lat":31.82057}},{"name":"万花园","count":1,"avgSize":57,"avgPrice":15547,"location":{"lng":117.27684,"lat":31.88465}},{"name":"国轩苑（西区）","count":1,"avgSize":139,"avgPrice":16476,"location":{"lng":117.27684,"lat":31.88465}},{"name":"长江路金巷4号","count":1,"avgSize":59,"avgPrice":18837,"location":{"lng":117.25668,"lat":31.87143}},{"name":"舒城路13号","count":1,"avgSize":62,"avgPrice":19225,"location":{"lng":117.28372,"lat":31.86054}},{"name":"消防队宿舍","count":0,"avgSize":null,"avgPrice":null,"location":{"lng":104.26102,"lat":30.56462}},{"name":"人民巷3号","count":1,"avgSize":81,"avgPrice":20988,"location":{"lng":117.27907,"lat":31.85766}},{"name":"淝滨小区","count":1,"avgSize":82,"avgPrice":13281,"location":{"lng":117.25469,"lat":31.87199}},{"name":"阜南路56号","count":0,"avgSize":null,"avgPrice":null,"location":{"lng":117.28463,"lat":31.8704}},{"name":"广电厅宿舍","count":1,"avgSize":87,"avgPrice":18966,"location":{"lng":117.31109,"lat":31.85754}},{"name":"安庆路147号","count":0,"avgSize":null,"avgPrice":null,"location":{"lng":117.31109,"lat":31.85754}},{"name":"艺术影城家属院","count":1,"avgSize":78,"avgPrice":17185,"location":{"lng":117.27912,"lat":31.863}},{"name":"星海四季经典园","count":0,"avgSize":null,"avgPrice":null,"location":{"lng":117.29512,"lat":31.80403}},{"name":"省卫生厅宿舍南院","count":1,"avgSize":92,"avgPrice":18457,"location":{"lng":117.2821,"lat":31.8595}},{"name":"红星路112号","count":1,"avgSize":40,"avgPrice":18750,"location":{"lng":117.28122,"lat":31.85901}},{"name":"双岗老街74号","count":1,"avgSize":56,"avgPrice":13339,"location":{"lng":117.28941,"lat":31.87787}},{"name":"双岗街48号","count":1,"avgSize":58,"avgPrice":12932,"location":{"lng":117.28789,"lat":31.87821}},{"name":"江淮大剧院宿舍","count":1,"avgSize":47,"avgPrice":18086,"location":{"lng":117.28789,"lat":31.87821}},{"name":"长江饭店宿舍","count":0,"avgSize":null,"avgPrice":null,"location":{"lng":117.28009,"lat":31.86152}},{"name":"淮河路443号","count":0,"avgSize":null,"avgPrice":null,"location":{"lng":117.28009,"lat":31.86152}},{"name":"省邮电管理局宿舍","count":0,"avgSize":null,"avgPrice":null,"location":{"lng":117.27699,"lat":31.86643}},{"name":"永红路17号","count":0,"avgSize":null,"avgPrice":null,"location":{"lng":117.27349,"lat":31.85709}},{"name":"霍邱路128号","count":1,"avgSize":76,"avgPrice":15697,"location":{"lng":117.27821,"lat":31.86527}},{"name":"东兴街七号","count":0,"avgSize":null,"avgPrice":null,"location":{"lng":117.25356,"lat":31.85786}},{"name":"义城劳服公司小区","count":0,"avgSize":null,"avgPrice":null,"location":{"lng":117.2991,"lat":31.81561}},{"name":"南国玲珑碧玉","count":0,"avgSize":null,"avgPrice":null,"location":{"lng":117.26991,"lat":31.88056}},{"name":"国轩苑（东区）","count":0,"avgSize":null,"avgPrice":null,"location":{"lng":117.25668,"lat":31.87143}},{"name":"无为路53号","count":0,"avgSize":null,"avgPrice":null,"location":{"lng":117.29151,"lat":31.86082}},{"name":"香樟小区","count":0,"avgSize":null,"avgPrice":null,"location":{"lng":117.28132,"lat":31.88886}},{"name":"临桥苑","count":1,"avgSize":60,"avgPrice":13404,"location":{"lng":117.2963,"lat":31.88925}},{"name":"瑞格花园","count":0,"avgSize":null,"avgPrice":null,"location":{"lng":117.20773,"lat":31.78945}},{"name":"腾徽苑","count":0,"avgSize":null,"avgPrice":null,"location":{"lng":117.23807,"lat":31.99472}},{"name":"锦江大厦","count":0,"avgSize":null,"avgPrice":null,"location":{"lng":117.26599,"lat":31.85806}},{"name":"万象新天","count":0,"avgSize":null,"avgPrice":null,"location":{"lng":117.26501,"lat":31.84545}},{"name":"邮电西村","count":0,"avgSize":null,"avgPrice":null,"location":{"lng":117.80172,"lat":31.53078}},{"name":"枫丹白鹭湖公馆","count":0,"avgSize":null,"avgPrice":null,"location":{"lng":117.18945,"lat":31.85647}},{"name":"康利园","count":0,"avgSize":null,"avgPrice":null,"location":{"lng":117.26928,"lat":31.76913}},{"name":"民航家园","count":1,"avgSize":105,"avgPrice":19825,"location":{"lng":117.29528,"lat":31.80534}},{"name":"合肥市劳动局宿舍","count":1,"avgSize":63,"avgPrice":16667,"location":{"lng":117.27677,"lat":31.86754}},{"name":"新海家园A区","count":1,"avgSize":79,"avgPrice":11916,"location":{"lng":117.35644,"lat":31.85945}},{"name":"颐和花园澜苑","count":0,"avgSize":null,"avgPrice":null,"location":{"lng":117.23905,"lat":31.86174}},{"name":"广利花园(北区)","count":1,"avgSize":208,"avgPrice":14327,"location":{"lng":117.2262,"lat":31.84598}},{"name":"星辰花园","count":1,"avgSize":152,"avgPrice":16294,"location":{"lng":117.29602,"lat":31.85107}},{"name":"安徽水电学院教师公寓","count":0,"avgSize":null,"avgPrice":null,"location":{"lng":117.21008,"lat":31.77027}},{"name":"翰林水岸","count":0,"avgSize":null,"avgPrice":null,"location":{"lng":117.15478,"lat":31.70363}},{"name":"御景前城（南区）","count":0,"avgSize":null,"avgPrice":null,"location":{"lng":117.27108,"lat":31.74838}},{"name":"幸福花园","count":0,"avgSize":null,"avgPrice":null,"location":{"lng":117.34838,"lat":31.84074}},{"name":"高速时代城一期","count":0,"avgSize":null,"avgPrice":null,"location":{"lng":117.31399,"lat":31.74293}},{"name":"怡景苑","count":0,"avgSize":null,"avgPrice":null,"location":{"lng":117.26013,"lat":31.88081}},{"name":"安然绿洲花园(北园)","count":0,"avgSize":null,"avgPrice":null,"location":{"lng":117.23871,"lat":31.89248}},{"name":"御湖观邸","count":0,"avgSize":null,"avgPrice":null,"location":{"lng":117.25836,"lat":31.77575}},{"name":"纪元阳光地带","count":0,"avgSize":null,"avgPrice":null,"location":{"lng":117.28268,"lat":31.88379}},{"name":"凤阳三村","count":0,"avgSize":null,"avgPrice":null,"location":{"lng":117.31705,"lat":31.87265}},{"name":"曙苑新村","count":0,"avgSize":null,"avgPrice":null,"location":{"lng":117.27864,"lat":31.83321}},{"name":"芙蓉苑南村","count":0,"avgSize":null,"avgPrice":null,"location":{"lng":117.27571,"lat":31.88777}},{"name":"岳西东村","count":1,"avgSize":61,"avgPrice":15082,"location":{"lng":117.22603,"lat":31.84945}},{"name":"五安家园","count":0,"avgSize":null,"avgPrice":null,"location":{"lng":117.22417,"lat":31.84621}},{"name":"红园小区","count":0,"avgSize":null,"avgPrice":null,"location":{"lng":117.2308,"lat":31.83376}},{"name":"荣城北苑","count":0,"avgSize":null,"avgPrice":null,"location":{"lng":117.27117,"lat":31.92286}},{"name":"顶峰国际公寓","count":1,"avgSize":128,"avgPrice":20704,"location":{"lng":117.28027,"lat":31.84828}},{"name":"合工大宿舍东院","count":1,"avgSize":62,"avgPrice":19084,"location":{"lng":117.296935,"lat":31.848036}},{"name":"岸上玫瑰北区","count":0,"avgSize":null,"avgPrice":null,"location":{"lng":117.2167,"lat":31.80733}},{"name":"青阳西村","count":0,"avgSize":null,"avgPrice":null,"location":{"lng":117.23542,"lat":31.85442}},{"name":"滨湖时光","count":0,"avgSize":null,"avgPrice":null,"location":{"lng":117.27371,"lat":31.76499}},{"name":"金泉小区","count":2,"avgSize":144,"avgPrice":22223,"location":{"lng":117.29036,"lat":31.73654}},{"name":"航鑫家苑","count":0,"avgSize":null,"avgPrice":null,"location":{"lng":117.23953,"lat":31.83102}},{"name":"安徽省农业科学院","count":0,"avgSize":null,"avgPrice":null,"location":{"lng":117.24494,"lat":31.89697}},{"name":"望湖城桂香居金桂苑","count":0,"avgSize":null,"avgPrice":null,"location":{"lng":117.29213,"lat":31.81046}},{"name":"纺织二村","count":0,"avgSize":null,"avgPrice":null,"location":{"lng":117.3271,"lat":31.85395}},{"name":"锦绣豪庭","count":0,"avgSize":null,"avgPrice":null,"location":{"lng":117.30143,"lat":31.87145}},{"name":"橡树湾三期","count":1,"avgSize":123,"avgPrice":18966,"location":{"lng":117.25792,"lat":31.88837}},{"name":"寿春四巷","count":0,"avgSize":null,"avgPrice":null,"location":{"lng":117.28859,"lat":31.86625}},{"name":"景祥大厦","count":0,"avgSize":null,"avgPrice":null,"location":{"lng":117.28639,"lat":31.89658}},{"name":"人民巷21号","count":1,"avgSize":76,"avgPrice":20804,"location":{"lng":117.27857,"lat":31.8597}},{"name":"湖东景园北区","count":1,"avgSize":168,"avgPrice":20813,"location":{"lng":117.24497,"lat":31.81597}},{"name":"桂馨苑","count":0,"avgSize":null,"avgPrice":null,"location":{"lng":117.29129,"lat":31.87918}},{"name":"格林馨园","count":0,"avgSize":null,"avgPrice":null,"location":{"lng":117.34077,"lat":31.87814}},{"name":"东方蓝海三期","count":0,"avgSize":null,"avgPrice":null,"location":{"lng":117.29538,"lat":31.71249}},{"name":"保利海上五月花","count":0,"avgSize":null,"avgPrice":null,"location":{"lng":117.29669,"lat":31.70547}},{"name":"金色梧桐","count":0,"avgSize":null,"avgPrice":null,"location":{"lng":117.30506,"lat":31.86805}},{"name":"众城国际广场","count":0,"avgSize":null,"avgPrice":null,"location":{"lng":117.28475,"lat":31.87911}},{"name":"铜陵南村","count":0,"avgSize":null,"avgPrice":null,"location":{"lng":117.32267,"lat":31.86821}},{"name":"香江生态丽景D区","count":0,"avgSize":null,"avgPrice":null,"location":{"lng":117.33108,"lat":31.89636}},{"name":"紫金山庄","count":0,"avgSize":null,"avgPrice":null,"location":{"lng":117.26335,"lat":31.78351}},{"name":"徽商城市庭院","count":0,"avgSize":null,"avgPrice":null,"location":{"lng":117.19827,"lat":31.85216}},{"name":"北湖南岸公寓","count":0,"avgSize":null,"avgPrice":null,"location":{"lng":117.24304,"lat":31.8983}},{"name":"方兴桃园","count":0,"avgSize":null,"avgPrice":null,"location":{"lng":117.20957,"lat":31.75097}},{"name":"临湖苑F区","count":0,"avgSize":null,"avgPrice":null,"location":{"lng":117.3797,"lat":31.14878}},{"name":"幸福里程","count":0,"avgSize":null,"avgPrice":null,"location":{"lng":117.20177,"lat":31.84708}},{"name":"康兴园","count":0,"avgSize":null,"avgPrice":null,"location":{"lng":117.28633,"lat":31.8811}},{"name":"统计新村","count":0,"avgSize":null,"avgPrice":null,"location":{"lng":117.23808,"lat":31.85012}},{"name":"安徽日报社宿舍大院","count":0,"avgSize":null,"avgPrice":null,"location":{"lng":117.28329,"lat":31.86456}},{"name":"五河新村","count":0,"avgSize":null,"avgPrice":null,"location":{"lng":117.28294,"lat":31.87632}},{"name":"滨湖康园（北区）","count":0,"avgSize":null,"avgPrice":null,"location":{"lng":117.3049,"lat":31.74875}},{"name":"嘉应茗阳水岸","count":0,"avgSize":null,"avgPrice":null,"location":{"lng":117.38104,"lat":31.86322}},{"name":"万科森林公园•曦园","count":0,"avgSize":null,"avgPrice":null,"location":null},{"name":"万家华庭","count":0,"avgSize":null,"avgPrice":null,"location":null},{"name":"新慧金水岸(北区)","count":0,"avgSize":null,"avgPrice":null,"location":{"lng":117.270362,"lat":32.037054}},{"name":"文忠苑A区","count":0,"avgSize":null,"avgPrice":null,"location":{"lng":117.37263,"lat":31.92366}},{"name":"物化探院小区","count":0,"avgSize":null,"avgPrice":null,"location":{"lng":109.02418,"lat":34.27205}},{"name":"名邦西城秀里（二）","count":0,"avgSize":null,"avgPrice":null,"location":{"lng":117.15058,"lat":31.70464}},{"name":"柏莊春暖花开","count":0,"avgSize":null,"avgPrice":null,"location":{"lng":117.35126,"lat":31.86822}},{"name":"华都城市花园","count":0,"avgSize":null,"avgPrice":null,"location":{"lng":117.37684,"lat":31.86614}},{"name":"园林局小区","count":0,"avgSize":null,"avgPrice":null,"location":{"lng":117.29485,"lat":31.86559}},{"name":"金都华庭五期","count":0,"avgSize":null,"avgPrice":null,"location":{"lng":117.27641,"lat":31.90318}},{"name":"山湖新村","count":0,"avgSize":null,"avgPrice":null,"location":{"lng":117.18795,"lat":31.85469}},{"name":"南艳湾","count":0,"avgSize":null,"avgPrice":null,"location":{"lng":117.25456,"lat":31.76822}},{"name":"柏堰商业楼","count":0,"avgSize":null,"avgPrice":null,"location":{"lng":117.16328,"lat":31.80684}},{"name":"康城水雲間","count":0,"avgSize":null,"avgPrice":null,"location":{"lng":117.33512,"lat":31.89101}},{"name":"万科森林公园•睿庭","count":0,"avgSize":null,"avgPrice":null,"location":null},{"name":"海棠花园","count":0,"avgSize":null,"avgPrice":null,"location":{"lng":117.27591,"lat":31.89139}},{"name":"罗马花园","count":0,"avgSize":null,"avgPrice":null,"location":{"lng":117.31377,"lat":31.8781}},{"name":"力高共和城","count":0,"avgSize":null,"avgPrice":null,"location":{"lng":117.25444,"lat":31.97375}},{"name":"蜀景园","count":0,"avgSize":null,"avgPrice":null,"location":{"lng":117.17708,"lat":31.85434}},{"name":"静安新城","count":0,"avgSize":null,"avgPrice":null,"location":{"lng":117.375237,"lat":31.859972}},{"name":"万成华府","count":0,"avgSize":null,"avgPrice":null,"location":{"lng":117.37608,"lat":31.88158}},{"name":"省粮食局宿舍","count":0,"avgSize":null,"avgPrice":null,"location":{"lng":117.30187,"lat":31.87998}},{"name":"钢铁一村","count":0,"avgSize":null,"avgPrice":null,"location":{"lng":117.28335,"lat":31.8875}},{"name":"天赐园","count":0,"avgSize":null,"avgPrice":null,"location":{"lng":117.28335,"lat":31.8875}},{"name":"天骄华庭","count":0,"avgSize":null,"avgPrice":null,"location":{"lng":117.20323,"lat":31.85344}},{"name":"经促局小区","count":0,"avgSize":null,"avgPrice":null,"location":{"lng":117.22901,"lat":31.82057}},{"name":"东航银燕小区","count":0,"avgSize":null,"avgPrice":null,"location":{"lng":117.28202,"lat":31.81609}},{"name":"庐阳瑞园","count":0,"avgSize":null,"avgPrice":null,"location":{"lng":117.22901,"lat":31.82057}},{"name":"好运长安","count":0,"avgSize":null,"avgPrice":null,"location":{"lng":117.15991,"lat":31.80021}},{"name":"龙腾家园","count":0,"avgSize":null,"avgPrice":null,"location":{"lng":117.35714,"lat":31.88152}},{"name":"滨湖康园（南区）","count":0,"avgSize":null,"avgPrice":null,"location":{"lng":117.3049,"lat":31.74875}},{"name":"龙凤嘉园二期","count":0,"avgSize":null,"avgPrice":null,"location":{"lng":117.23136,"lat":31.86268}},{"name":"颐徽苑","count":0,"avgSize":null,"avgPrice":null,"location":{"lng":117.25234,"lat":31.99568}},{"name":"大溪地天籁轩","count":0,"avgSize":null,"avgPrice":null,"location":{"lng":117.21974,"lat":31.84357}},{"name":"妇幼保健院宿舍","count":0,"avgSize":null,"avgPrice":null,"location":{"lng":117.28092,"lat":31.85784}},{"name":"天然轩小区","count":0,"avgSize":null,"avgPrice":null,"location":{"lng":117.26147,"lat":31.90112}},{"name":"欣塘家园","count":0,"avgSize":null,"avgPrice":null,"location":{"lng":117.2131,"lat":31.8352}},{"name":"阳光御湖苑","count":0,"avgSize":null,"avgPrice":null,"location":{"lng":117.12751,"lat":31.84761}},{"name":"乡村花园","count":0,"avgSize":null,"avgPrice":null,"location":{"lng":117.25295,"lat":31.76291}},{"name":"兴海苑C区","count":0,"avgSize":null,"avgPrice":null,"location":{"lng":117.30468,"lat":31.90363}},{"name":"新海尚宸家园","count":0,"avgSize":null,"avgPrice":null,"location":{"lng":117.34225,"lat":31.8989}},{"name":"国安家园","count":0,"avgSize":null,"avgPrice":null,"location":{"lng":117.33906,"lat":31.86219}},{"name":"义仓巷","count":0,"avgSize":null,"avgPrice":null,"location":{"lng":117.29171,"lat":31.86757}},{"name":"大地雅苑","count":0,"avgSize":null,"avgPrice":null,"location":{"lng":117.21496,"lat":31.78596}},{"name":"庐州小区","count":0,"avgSize":null,"avgPrice":null,"location":{"lng":117.29818,"lat":31.87874}},{"name":"新华大院","count":0,"avgSize":null,"avgPrice":null,"location":{"lng":117.2951,"lat":31.87941}},{"name":"北华园小区","count":0,"avgSize":null,"avgPrice":null,"location":{"lng":117.29687,"lat":31.87899}},{"name":"凤阳路西段","count":0,"avgSize":null,"avgPrice":null,"location":{"lng":117.30832,"lat":31.87583}},{"name":"人防苑","count":0,"avgSize":null,"avgPrice":null,"location":{"lng":117.29904,"lat":31.88548}},{"name":"车城小区","count":0,"avgSize":null,"avgPrice":null,"location":{"lng":117.16068,"lat":31.80947}},{"name":"银都苑","count":0,"avgSize":null,"avgPrice":null,"location":{"lng":117.29995,"lat":31.88757}},{"name":"二环新村","count":0,"avgSize":null,"avgPrice":null,"location":{"lng":117.21649,"lat":31.85306}},{"name":"合烟职工宿舍","count":0,"avgSize":null,"avgPrice":null,"location":{"lng":117.22901,"lat":31.82057}},{"name":"环东小区","count":0,"avgSize":null,"avgPrice":null,"location":{"lng":117.21455,"lat":31.84396}},{"name":"江南新村","count":0,"avgSize":null,"avgPrice":null,"location":{"lng":117.16013,"lat":31.80658}},{"name":"繁华大道397","count":0,"avgSize":null,"avgPrice":null,"location":{"lng":117.20141,"lat":31.78216}},{"name":"康居苑","count":0,"avgSize":null,"avgPrice":null,"location":{"lng":117.20087,"lat":31.78453}},{"name":"书缘居","count":0,"avgSize":null,"avgPrice":null,"location":{"lng":117.19807,"lat":31.78456}},{"name":"桃花镇染坊社区","count":0,"avgSize":null,"avgPrice":null,"location":{"lng":117.20169,"lat":31.78563}},{"name":"桃花苑","count":0,"avgSize":null,"avgPrice":null,"location":{"lng":117.15999,"lat":31.80115}},{"name":"书香苑","count":0,"avgSize":null,"avgPrice":null,"location":{"lng":117.2191,"lat":31.8052}},{"name":"顺和家园北区","count":0,"avgSize":null,"avgPrice":null,"location":{"lng":117.14715,"lat":31.76957}},{"name":"顺和家园南区","count":0,"avgSize":null,"avgPrice":null,"location":{"lng":117.14715,"lat":31.76957}},{"name":"顺美家园","count":0,"avgSize":null,"avgPrice":null,"location":{"lng":117.14632,"lat":31.77381}},{"name":"长春都市花园","count":0,"avgSize":null,"avgPrice":null,"location":{"lng":117.30417,"lat":31.88287}},{"name":"新城花园","count":0,"avgSize":null,"avgPrice":null,"location":{"lng":117.3104,"lat":31.88006}},{"name":"徽州大道681号","count":0,"avgSize":null,"avgPrice":null,"location":{"lng":117.28503,"lat":31.83815}},{"name":"矿机一分厂小区","count":0,"avgSize":null,"avgPrice":null,"location":{"lng":117.29458,"lat":31.82266}},{"name":"华苑小区","count":0,"avgSize":null,"avgPrice":null,"location":{"lng":117.28027,"lat":31.83302}},{"name":"美菱大道155号","count":0,"avgSize":null,"avgPrice":null,"location":{"lng":117.28516,"lat":31.83791}},{"name":"美菱大道173号","count":0,"avgSize":null,"avgPrice":null,"location":{"lng":117.285257,"lat":31.83427}},{"name":"太宁花园紫荆苑","count":0,"avgSize":null,"avgPrice":null,"location":{"lng":117.29255,"lat":31.83047}},{"name":"美菱大道268号","count":0,"avgSize":null,"avgPrice":null,"location":{"lng":117.285797,"lat":31.828533}},{"name":"宁国路宿舍","count":0,"avgSize":null,"avgPrice":null,"location":{"lng":117.29086,"lat":31.85146}},{"name":"徽商城市风景","count":10,"avgSize":88.8,"avgPrice":17058,"location":{"lng":117.19823,"lat":31.85054}},{"name":"禹洲华侨城（一期）","count":14,"avgSize":119.5,"avgPrice":15930,"location":{"lng":117.20391,"lat":31.79857}},{"name":"万振城市广场","count":9,"avgSize":65.11111111111111,"avgPrice":14841,"location":{"lng":117.8782,"lat":31.59761}},{"name":"安粮城市广场QQ公寓","count":1,"avgSize":62,"avgPrice":16130,"location":{"lng":117.25376,"lat":31.81842}},{"name":"百乐门悦府","count":3,"avgSize":98.33333333333333,"avgPrice":16066,"location":{"lng":117.22932,"lat":31.77528}},{"name":"丽阳兰庭","count":9,"avgSize":62.22222222222222,"avgPrice":17146,"location":{"lng":117.30364,"lat":31.82124}},{"name":"大溪地(六期)","count":11,"avgSize":87.18181818181819,"avgPrice":19266,"location":{"lng":117.2206,"lat":31.84318}},{"name":"国轩K西嘉","count":4,"avgSize":86.5,"avgPrice":15702,"location":{"lng":117.21085,"lat":31.83516}},{"name":"港汇广场","count":10,"avgSize":70,"avgPrice":18210,"location":{"lng":117.2331,"lat":31.83272}},{"name":"圣联香御公馆","count":4,"avgSize":71.75,"avgPrice":11047,"location":{"lng":117.1938,"lat":31.81655}},{"name":"世纪城树荫苑","count":5,"avgSize":85,"avgPrice":19683,"location":{"lng":117.29895,"lat":31.74968}},{"name":"巴黎都市凯旋宫","count":6,"avgSize":103.16666666666667,"avgPrice":19906,"location":{"lng":117.30538,"lat":31.73617}},{"name":"银杏苑","count":11,"avgSize":121.0909090909091,"avgPrice":15383,"location":{"lng":117.28921,"lat":31.82128}},{"name":"南园新村","count":9,"avgSize":75.44444444444444,"avgPrice":15651,"location":{"lng":117.27388,"lat":31.83616}},{"name":"兴园小区","count":2,"avgSize":78,"avgPrice":16149,"location":{"lng":117.20475,"lat":31.81723}},{"name":"中央美域花园B区","count":12,"avgSize":141.25,"avgPrice":18433,"location":{"lng":117.23697,"lat":31.8677}},{"name":"绿怡居东区","count":7,"avgSize":103.28571428571429,"avgPrice":16069,"location":{"lng":117.24126,"lat":31.82108}},{"name":"百商现代名苑","count":10,"avgSize":85.4,"avgPrice":17530,"location":{"lng":117.19451,"lat":31.81027}},{"name":"中铁国际城旭园","count":1,"avgSize":78,"avgPrice":17255,"location":{"lng":117.23206,"lat":31.90384}},{"name":"九华华林家园","count":6,"avgSize":103.5,"avgPrice":18613,"location":{"lng":117.23406,"lat":31.83993}},{"name":"水墨蘭庭北区","count":8,"avgSize":116,"avgPrice":23406,"location":{"lng":117.2185,"lat":31.81982}},{"name":"内森庄园","count":6,"avgSize":341.8333333333333,"avgPrice":22926,"location":{"lng":117.21478,"lat":31.81495}},{"name":"中环城国际公寓","count":8,"avgSize":68.25,"avgPrice":19851,"location":{"lng":117.208,"lat":31.7805}},{"name":"幸福人家","count":5,"avgSize":76.2,"avgPrice":17778,"location":{"lng":117.208,"lat":31.7805}},{"name":"中铁国际城德园","count":2,"avgSize":85,"avgPrice":17240,"location":{"lng":117.23206,"lat":31.90384}},{"name":"梦园小区","count":5,"avgSize":157.8,"avgPrice":17043,"location":{"lng":117.19714,"lat":31.8459}},{"name":"蓝鼎滨湖假日枫丹园","count":7,"avgSize":119,"avgPrice":22759,"location":{"lng":117.29495,"lat":31.73323}},{"name":"长安萨尔斯堡","count":5,"avgSize":95.8,"avgPrice":15444,"location":{"lng":117.20343,"lat":31.75132}},{"name":"景尚名郡","count":7,"avgSize":53.714285714285715,"avgPrice":15694,"location":{"lng":117.19261,"lat":31.81332}},{"name":"天时非常空间","count":3,"avgSize":65.33333333333333,"avgPrice":9070,"location":{"lng":117.20884,"lat":31.77593}},{"name":"瑞景家园","count":0,"avgSize":null,"avgPrice":null,"location":{"lng":117.3119,"lat":31.87796}},{"name":"太宁花园紫云阁","count":0,"avgSize":null,"avgPrice":null,"location":{"lng":117.29258,"lat":31.83176}},{"name":"万豪花园","count":0,"avgSize":null,"avgPrice":null,"location":{"lng":117.31489,"lat":31.87757}},{"name":"桐城南路382","count":0,"avgSize":null,"avgPrice":null,"location":{"lng":117.28135,"lat":31.83804}},{"name":"安徽国际商务学院生活区","count":0,"avgSize":null,"avgPrice":null,"location":{"lng":117.272494,"lat":31.983876}},{"name":"百花苑","count":0,"avgSize":null,"avgPrice":null,"location":{"lng":117.28746,"lat":31.81834}},{"name":"徽州大道1168","count":0,"avgSize":null,"avgPrice":null,"location":{"lng":117.28484,"lat":31.82093}},{"name":"金桃园","count":0,"avgSize":null,"avgPrice":null,"location":{"lng":117.28529,"lat":31.82022}},{"name":"科大花园东苑","count":0,"avgSize":null,"avgPrice":null,"location":{"lng":117.27993,"lat":31.81952}},{"name":"科大花园西苑","count":0,"avgSize":null,"avgPrice":null,"location":{"lng":117.27563,"lat":31.82026}},{"name":"青年公寓","count":0,"avgSize":null,"avgPrice":null,"location":{"lng":117.29205,"lat":31.82037}},{"name":"四季花园","count":0,"avgSize":null,"avgPrice":null,"location":{"lng":117.29205,"lat":31.82037}},{"name":"繁华新园","count":0,"avgSize":null,"avgPrice":null,"location":{"lng":117.28846,"lat":31.81863}},{"name":"凤麟兰庭","count":0,"avgSize":null,"avgPrice":null,"location":{"lng":117.30011,"lat":31.95082}},{"name":"永和公寓","count":0,"avgSize":null,"avgPrice":null,"location":{"lng":117.12061,"lat":31.84969}},{"name":"永和家园","count":0,"avgSize":null,"avgPrice":null,"location":{"lng":117.12027,"lat":31.84718}},{"name":"永和家园三期(南区)","count":0,"avgSize":null,"avgPrice":null,"location":{"lng":117.11383,"lat":31.84185}},{"name":"天水家园","count":0,"avgSize":null,"avgPrice":null,"location":{"lng":117.30238,"lat":31.92335}},{"name":"安徽省煤田地质局宿舍","count":0,"avgSize":null,"avgPrice":null,"location":{"lng":117.10188,"lat":36.19345}},{"name":"金明花园一期","count":0,"avgSize":null,"avgPrice":null,"location":{"lng":117.1911,"lat":31.94473}},{"name":"博威香山丽舍","count":0,"avgSize":null,"avgPrice":null,"location":{"lng":117.16649,"lat":31.85933}},{"name":"绿城雅苑","count":0,"avgSize":null,"avgPrice":null,"location":{"lng":117.19565,"lat":31.94173}},{"name":"名仁豪庭","count":0,"avgSize":null,"avgPrice":null,"location":{"lng":117.20451,"lat":31.80015}},{"name":"青杨苑","count":0,"avgSize":null,"avgPrice":null,"location":{"lng":117.21093,"lat":31.92082}},{"name":"卫庄小区","count":0,"avgSize":null,"avgPrice":null,"location":{"lng":117.21291,"lat":31.89671}},{"name":"印敦佳园","count":0,"avgSize":null,"avgPrice":null,"location":{"lng":117.22171,"lat":31.86095}},{"name":"玉成明珠苑","count":0,"avgSize":null,"avgPrice":null,"location":{"lng":117.19251,"lat":31.94614}},{"name":"凤梅家园(西区)","count":0,"avgSize":null,"avgPrice":null,"location":{"lng":117.24749,"lat":31.97623}},{"name":"凤霞苑","count":0,"avgSize":null,"avgPrice":null,"location":{"lng":117.28469,"lat":31.97783}},{"name":"科创.和谐盛世","count":0,"avgSize":null,"avgPrice":null,"location":{"lng":117.15224,"lat":31.70682}},{"name":"李湾安置小区","count":0,"avgSize":null,"avgPrice":null,"location":{"lng":117.15158,"lat":31.71854}},{"name":"双凤凤梅佳园(东区)","count":0,"avgSize":null,"avgPrice":null,"location":{"lng":117.25262,"lat":31.98017}},{"name":"甘泉新村东区","count":0,"avgSize":null,"avgPrice":null,"location":{"lng":117.17514,"lat":31.85807}},{"name":"万里社区(二期)","count":0,"avgSize":null,"avgPrice":null,"location":{"lng":117.27163,"lat":31.99166}},{"name":"万里社区(一期)","count":0,"avgSize":null,"avgPrice":null,"location":{"lng":117.27163,"lat":31.99166}},{"name":"甘泉新村西区","count":0,"avgSize":null,"avgPrice":null,"location":{"lng":117.1706,"lat":31.85838}},{"name":"阿奎利亚理想家","count":0,"avgSize":null,"avgPrice":null,"location":{"lng":117.25994,"lat":31.95472}},{"name":"帝徽苑","count":0,"avgSize":null,"avgPrice":null,"location":{"lng":117.23736,"lat":31.99735}},{"name":"丰岛1号","count":0,"avgSize":null,"avgPrice":null,"location":{"lng":111.45839,"lat":30.39511}},{"name":"冠徽苑","count":0,"avgSize":null,"avgPrice":null,"location":{"lng":117.24211,"lat":31.99553}},{"name":"景观庭苑","count":0,"avgSize":null,"avgPrice":null,"location":{"lng":117.1904,"lat":31.85372}},{"name":"恒泰阿奎利亚(北区)","count":0,"avgSize":null,"avgPrice":null,"location":{"lng":117.26139,"lat":31.95319}},{"name":"鸿徽苑","count":0,"avgSize":null,"avgPrice":null,"location":{"lng":117.24751,"lat":31.99989}},{"name":"科学家园","count":0,"avgSize":null,"avgPrice":null,"location":{"lng":117.17404,"lat":31.863}},{"name":"锦徽苑","count":0,"avgSize":null,"avgPrice":null,"location":{"lng":117.24543,"lat":32.00412}},{"name":"瑞龍花园","count":0,"avgSize":null,"avgPrice":null,"location":{"lng":117.25243,"lat":31.98101}},{"name":"双凤里","count":0,"avgSize":null,"avgPrice":null,"location":{"lng":117.26369,"lat":32.00266}},{"name":"山湖苑","count":0,"avgSize":null,"avgPrice":null,"location":{"lng":117.17157,"lat":31.86284}},{"name":"山湖苑东区","count":0,"avgSize":null,"avgPrice":null,"location":{"lng":117.17157,"lat":31.86284}},{"name":"祥徽苑写字楼","count":0,"avgSize":null,"avgPrice":null,"location":{"lng":117.24725,"lat":31.99751}},{"name":"新慧金水岸(南区)","count":0,"avgSize":null,"avgPrice":null,"location":{"lng":117.270362,"lat":32.037054}},{"name":"徐桥苑北区","count":0,"avgSize":null,"avgPrice":null,"location":{"lng":117.25934,"lat":31.95784}},{"name":"徐桥苑南区","count":0,"avgSize":null,"avgPrice":null,"location":{"lng":117.266,"lat":31.95559}},{"name":"西蜀名苑","count":0,"avgSize":null,"avgPrice":null,"location":{"lng":117.21185,"lat":31.83547}},{"name":"堰湖山庄东区","count":0,"avgSize":null,"avgPrice":null,"location":{"lng":117.15809,"lat":31.80135}},{"name":"专家生活","count":0,"avgSize":null,"avgPrice":null,"location":{"lng":117.2717,"lat":31.84448}},{"name":"北辰天都","count":0,"avgSize":null,"avgPrice":null,"location":{"lng":117.25671,"lat":31.97705}},{"name":"公交蜀山园","count":0,"avgSize":null,"avgPrice":null,"location":{"lng":117.18,"lat":31.86007}},{"name":"和微苑","count":0,"avgSize":null,"avgPrice":null,"location":{"lng":117.2324,"lat":31.8288}},{"name":"名邦西城国际","count":0,"avgSize":null,"avgPrice":null,"location":{"lng":117.15574,"lat":31.71512}},{"name":"省立医院老院宿舍","count":0,"avgSize":null,"avgPrice":null,"location":{"lng":117.28838,"lat":31.85831}},{"name":"市政小区二区","count":0,"avgSize":null,"avgPrice":null,"location":{"lng":117.16124,"lat":31.72401}},{"name":"市政小区三区","count":0,"avgSize":null,"avgPrice":null,"location":{"lng":117.16124,"lat":31.72401}},{"name":"无为路","count":0,"avgSize":null,"avgPrice":null,"location":{"lng":117.16124,"lat":31.72401}},{"name":"芜湖路195","count":0,"avgSize":null,"avgPrice":null,"location":{"lng":117.29286,"lat":31.85752}},{"name":"宣城路99号","count":0,"avgSize":null,"avgPrice":null,"location":{"lng":117.29436,"lat":31.85351}},{"name":"天柱园小区","count":0,"avgSize":null,"avgPrice":null,"location":{"lng":117.23009,"lat":31.84571}},{"name":"三江小区","count":0,"avgSize":null,"avgPrice":null,"location":{"lng":117.21812,"lat":31.83257}},{"name":"博微家园","count":0,"avgSize":null,"avgPrice":null,"location":{"lng":117.24343,"lat":31.85962}},{"name":"绩溪路210号","count":0,"avgSize":null,"avgPrice":null,"location":{"lng":117.26964,"lat":31.8455}},{"name":"东汽小区","count":0,"avgSize":null,"avgPrice":null,"location":{"lng":117.24695,"lat":31.83138}},{"name":"文惠园","count":0,"avgSize":null,"avgPrice":null,"location":{"lng":117.26006,"lat":31.8476}},{"name":"林业厅小区","count":0,"avgSize":null,"avgPrice":null,"location":{"lng":117.24747,"lat":31.86204}},{"name":"庐阳佳苑E组团","count":0,"avgSize":null,"avgPrice":null,"location":{"lng":117.23774,"lat":31.85836}},{"name":"兴业苑","count":0,"avgSize":null,"avgPrice":null,"location":{"lng":117.2598,"lat":31.85016}},{"name":"合肥轮胎翻新厂小区","count":0,"avgSize":null,"avgPrice":null,"location":{"lng":117.29314,"lat":31.88366}},{"name":"油库生活小区","count":0,"avgSize":null,"avgPrice":null,"location":{"lng":117.24898,"lat":31.82123}},{"name":"中国铁路四局集团第七工程公司","count":0,"avgSize":null,"avgPrice":null,"location":{"lng":117.15384,"lat":31.71119}},{"name":"石门路2491号","count":0,"avgSize":null,"avgPrice":null,"location":{"lng":117.15384,"lat":31.71119}},{"name":"岚翠苑","count":0,"avgSize":null,"avgPrice":null,"location":{"lng":117.21122,"lat":31.77871}},{"name":"北苑新村","count":0,"avgSize":null,"avgPrice":null,"location":{"lng":117.29147,"lat":31.25435}},{"name":"嘉兴苑","count":0,"avgSize":null,"avgPrice":null,"location":{"lng":117.29178,"lat":31.88386}},{"name":"兰亭园","count":0,"avgSize":null,"avgPrice":null,"location":{"lng":117.2999,"lat":31.87961}},{"name":"柏堰雅苑","count":0,"avgSize":null,"avgPrice":null,"location":{"lng":117.16488,"lat":31.80464}},{"name":"榴园","count":0,"avgSize":null,"avgPrice":null,"location":{"lng":117.29521,"lat":31.878}},{"name":"新年新村","count":0,"avgSize":null,"avgPrice":null,"location":{"lng":117.26851,"lat":31.74265}},{"name":"包河花园E区","count":0,"avgSize":null,"avgPrice":null,"location":{"lng":117.34074,"lat":31.79642}},{"name":"阳光公寓","count":0,"avgSize":null,"avgPrice":null,"location":{"lng":117.30074,"lat":31.8676}},{"name":"御景前城（东区）","count":0,"avgSize":null,"avgPrice":null,"location":{"lng":117.27108,"lat":31.74838}},{"name":"包河花园E区众望小区","count":0,"avgSize":null,"avgPrice":null,"location":{"lng":117.34074,"lat":31.79642}},{"name":"包河苑(A区、B区、C区、D区)","count":0,"avgSize":null,"avgPrice":null,"location":{"lng":117.32045,"lat":31.79464}},{"name":"张郢小区","count":0,"avgSize":null,"avgPrice":null,"location":{"lng":117.18265,"lat":31.71456}},{"name":"张郢小区（二区）","count":0,"avgSize":null,"avgPrice":null,"location":{"lng":117.18265,"lat":31.71456}},{"name":"包河苑(E区)","count":0,"avgSize":null,"avgPrice":null,"location":{"lng":117.32045,"lat":31.79464}},{"name":"包河苑(F区)","count":0,"avgSize":null,"avgPrice":null,"location":{"lng":117.32045,"lat":31.79464}},{"name":"包河苑广电小区","count":0,"avgSize":null,"avgPrice":null,"location":{"lng":117.31721,"lat":31.79479}},{"name":"安徽省春城建设工程有限公司","count":0,"avgSize":null,"avgPrice":null,"location":{"lng":117.31087,"lat":31.869}},{"name":"大富新村","count":0,"avgSize":null,"avgPrice":null,"location":{"lng":117.31007,"lat":31.86945}},{"name":"代安桥路4栋","count":0,"avgSize":null,"avgPrice":null,"location":{"lng":117.30829,"lat":31.86622}},{"name":"戴安桥巷","count":0,"avgSize":null,"avgPrice":null,"location":{"lng":117.30775,"lat":31.86707}},{"name":"淮北新村","count":0,"avgSize":null,"avgPrice":null,"location":{"lng":117.31206,"lat":31.8676}},{"name":"传染病医院宿舍","count":0,"avgSize":null,"avgPrice":null,"location":{"lng":117.27379,"lat":31.84363}},{"name":"科大东区","count":0,"avgSize":null,"avgPrice":null,"location":{"lng":123.46987,"lat":41.80515}},{"name":"曙光社区","count":0,"avgSize":null,"avgPrice":null,"location":{"lng":123.46987,"lat":41.80515}},{"name":"旭景家园","count":0,"avgSize":null,"avgPrice":null,"location":{"lng":117.27449,"lat":31.84513}},{"name":"文昌家园","count":0,"avgSize":null,"avgPrice":null,"location":{"lng":117.27286,"lat":31.83551}},{"name":"澳澜宝邸","count":0,"avgSize":null,"avgPrice":null,"location":{"lng":117.30532,"lat":31.87871}},{"name":"长淮C区","count":0,"avgSize":null,"avgPrice":null,"location":{"lng":117.30481,"lat":31.87794}},{"name":"客运公司宿舍楼","count":0,"avgSize":null,"avgPrice":null,"location":{"lng":117.35495,"lat":31.78438}},{"name":"琅琊山路45号","count":0,"avgSize":null,"avgPrice":null,"location":{"lng":117.35495,"lat":31.78438}},{"name":"红旗村","count":0,"avgSize":null,"avgPrice":null,"location":{"lng":117.31157,"lat":31.86853}},{"name":"惠风小区","count":0,"avgSize":null,"avgPrice":null,"location":{"lng":117.30634,"lat":31.8761}},{"name":"家和居","count":0,"avgSize":null,"avgPrice":null,"location":{"lng":117.3042,"lat":31.87851}},{"name":"金雅迪大厦","count":0,"avgSize":null,"avgPrice":null,"location":{"lng":117.30659,"lat":31.87318}},{"name":"锦绣嘉苑","count":0,"avgSize":null,"avgPrice":null,"location":{"lng":117.31255,"lat":31.87089}},{"name":"金星和园(北区)","count":0,"avgSize":null,"avgPrice":null,"location":{"lng":117.17351,"lat":31.73472}},{"name":"金色里程","count":0,"avgSize":null,"avgPrice":null,"location":{"lng":117.26528,"lat":31.96819}},{"name":"金星和园(南区)","count":0,"avgSize":null,"avgPrice":null,"location":{"lng":117.17351,"lat":31.73472}},{"name":"金宇天地城","count":0,"avgSize":null,"avgPrice":null,"location":{"lng":117.17178,"lat":31.72907}},{"name":"力高共和城东区","count":0,"avgSize":null,"avgPrice":null,"location":{"lng":117.25444,"lat":31.97375}},{"name":"聚缘山庄","count":0,"avgSize":null,"avgPrice":null,"location":{"lng":117.18072,"lat":31.73818}},{"name":"开拓环球世家","count":0,"avgSize":null,"avgPrice":null,"location":{"lng":117.17843,"lat":31.73855}},